{"periods":["2023-11","2023-12","2024-01","2024-02","2024-03","2024-04"],"labels":["Nov '23","Dec '23","Jan '24","Feb '24","Mar '24","Apr '24"],"zones":[{"id":"2890_17265","name":"MBT Road","lat":13.00829,"lon":77.69514,"tier":"P1","counts":[277,394,498,683,924,347]},{"id":"2888_17259","name":"MBT Road","lat":12.99636,"lon":77.6687,"tier":"P1","counts":[165,148,135,227,357,57]},{"id":"2880_17239","name":"KR Market Junction","lat":12.96378,"lon":77.57731,"tier":"P1","counts":[438,997,1231,1390,1781,442]},{"id":"2887_17258","name":"Old Madras Road","lat":12.99367,"lon":77.66269,"tier":"P1","counts":[40,82,95,187,320,53]},{"id":"2863_17253","name":"Hosur Road","lat":12.8857,"lon":77.64144,"tier":"P1","counts":[24,64,55,85,167,57]},{"id":"2888_17261","name":"Outer Ring Road","lat":13.00024,"lon":77.67698,"tier":"P1","counts":[44,314,229,232,405,94]},{"id":"2886_17238","name":"J Lingaiah Road","lat":12.98953,"lon":77.57322,"tier":"P1","counts":[97,199,167,149,308,31]},{"id":"2904_17241","name":"Sahakar Nagar Road","lat":13.07104,"lon":77.58791,"tier":"P1","counts":[314,459,982,1222,1242,362]},{"id":"2890_17234","name":"10th Cross, Dr. Rajkumar Road","lat":13.00848,"lon":77.55479,"tier":"P1","counts":[419,454,518,468,739,221]},{"id":"2883_17237","name":"Shanthala Junction","lat":12.97695,"lon":77.57074,"tier":"P1","counts":[145,198,278,70,326,28]},{"id":"2874_17247","name":"UCO Bank Junction","lat":12.93546,"lon":77.61452,"tier":"P1","counts":[61,137,136,132,258,28]},{"id":"2929_17262","name":"Unnamed Road","lat":13.18401,"lon":77.67988,"tier":"P1","counts":[161,405,473,521,589,99]},{"id":"2884_17246","name":"Safina Plaza Junction","lat":12.98118,"lon":77.60923,"tier":"P1","counts":[1690,1160,2217,1728,2415,667]},{"id":"2910_17244","name":"Jakkur Main Road","lat":13.09706,"lon":77.59956,"tier":"P1","counts":[48,206,28,73,213,38]},{"id":"2873_17240","name":"27th Cross, 4th Main, Jayanagar","lat":12.92964,"lon":77.58264,"tier":"P1","counts":[126,154,139,88,251,108]},{"id":"2891_17234","name":"80 Feet Ring Road","lat":13.01186,"lon":77.55432,"tier":"P1","counts":[412,412,539,625,744,395]},{"id":"2884_17233","name":"NPS, Vijayanagar","lat":12.98097,"lon":77.54917,"tier":"P1","counts":[22,29,33,51,143,18]},{"id":"2878_17270","name":"Vibgyor High School Road","lat":12.95182,"lon":77.71743,"tier":"P1","counts":[11,21,45,42,151,24]},{"id":"2885_17233","name":"NPS, Vijayanagar","lat":12.98486,"lon":77.54983,"tier":"P1","counts":[51,114,58,59,176,61]},{"id":"2868_17244","name":"GD Mara Junction","lat":12.90807,"lon":77.60068,"tier":"P1","counts":[11,28,14,133,304,67]},{"id":"2899_17239","name":"Bhadrappa Flyover","lat":13.04753,"lon":77.57618,"tier":"P1","counts":[60,56,70,159,228,170]},{"id":"2880_17240","name":"NR Road, SP Road Junction","lat":12.96382,"lon":77.5828,"tier":"P1","counts":[241,384,268,436,502,134]},{"id":"2885_17245","name":"Central Street Junction","lat":12.98412,"lon":77.60394,"tier":"P1","counts":[544,412,1084,427,860,149]},{"id":"2885_17246","name":"Kamaraj Road","lat":12.98313,"lon":77.6094,"tier":"P1","counts":[417,305,448,300,578,291]},{"id":"2881_17238","name":"AS Char Street, Mysore Road","lat":12.96621,"lon":77.57425,"tier":"P1","counts":[233,482,468,485,576,108]},{"id":"2886_17230","name":"Havanur Circle","lat":12.98847,"lon":77.53764,"tier":"P1","counts":[76,61,94,164,201,38]},{"id":"2885_17247","name":"Veera Pillai Road","lat":12.98277,"lon":77.61264,"tier":"P1","counts":[50,38,60,59,139,63]},{"id":"2883_17235","name":"G Narayana Kumar Road","lat":12.97572,"lon":77.5599,"tier":"P1","counts":[359,159,252,144,361,83]},{"id":"2881_17239","name":"KR Market Junction","lat":12.9652,"lon":77.57721,"tier":"P1","counts":[271,475,1054,658,786,147]},{"id":"2865_17252","name":"Hosur Road","lat":12.89363,"lon":77.63694,"tier":"P1","counts":[39,83,67,52,127,19]},{"id":"2877_17266","name":"Outer Ring Road","lat":12.94955,"lon":77.69953,"tier":"P1","counts":[44,79,86,292,224,46]},{"id":"2887_17265","name":"Whitefield Road","lat":12.99547,"lon":77.69569,"tier":"P1","counts":[13,213,150,91,245,24]},{"id":"2873_17263","name":"Outer Ring Road","lat":12.93069,"lon":77.6857,"tier":"P1","counts":[56,182,309,294,319,69]},{"id":"2891_17233","name":"Da Ra Bendre Road","lat":13.01161,"lon":77.55165,"tier":"P1","counts":[280,283,276,412,403,287]},{"id":"2884_17265","name":"Outer Ring Road","lat":12.97923,"lon":77.69507,"tier":"P1","counts":[33,82,119,57,135,22]},{"id":"2930_17262","name":"Unnamed Road","lat":13.1868,"lon":77.68023,"tier":"P1","counts":[94,217,348,446,353,40]},{"id":"2883_17239","name":"Elite Junction","lat":12.9763,"lon":77.57741,"tier":"P1","counts":[2222,3057,3134,2717,3134,1142]},{"id":"2896_17242","name":"Bellary Road","lat":13.03548,"lon":77.58913,"tier":"P1","counts":[205,498,371,346,462,58]},{"id":"2887_17233","name":"RR Kalyana Mantapa, Dr. Rajkumar Road","lat":12.99346,"lon":77.55247,"tier":"P1","counts":[52,97,51,210,196,65]},{"id":"2885_17244","name":"Central Street Junction","lat":12.98432,"lon":77.60142,"tier":"P1","counts":[25,44,78,40,114,13]},{"id":"2890_17233","name":"Mahalaxmi Layout Entrance","lat":13.00775,"lon":77.54876,"tier":"P1","counts":[72,103,60,136,168,87]},{"id":"2884_17238","name":"Anand Rao Junction","lat":12.97935,"lon":77.57483,"tier":"P1","counts":[594,820,653,368,690,283]},{"id":"2875_17240","name":"9th Cross, 4th Main, Jayanagar","lat":12.93939,"lon":77.58377,"tier":"P1","counts":[32,51,9,5,264,107]},{"id":"2884_17244","name":"Minsk Square Junction (CTO)","lat":12.9812,"lon":77.59879,"tier":"P1","counts":[364,250,414,342,460,44]},{"id":"2884_17247","name":"Gangadhara Chetty Road","lat":12.98134,"lon":77.61338,"tier":"P1","counts":[232,219,236,176,272,100]},{"id":"2884_17239","name":"Subbanna Junction","lat":12.979,"lon":77.5784,"tier":"P1","counts":[579,720,593,483,646,397]},{"id":"2874_17264","name":"New Horizon College Road","lat":12.93391,"lon":77.69093,"tier":"P1","counts":[481,702,1604,1545,1327,69]},{"id":"2878_17266","name":"Outer Ring Road","lat":12.95199,"lon":77.70001,"tier":"P1","counts":[16,30,80,72,93,30]},{"id":"2853_17254","name":"Neeladri Road","lat":12.84186,"lon":77.6456,"tier":"P1","counts":[223,180,105,498,328,82]},{"id":"2883_17233","name":"Cholurpalya Junction, Magadi Road","lat":12.97398,"lon":77.55108,"tier":"P1","counts":[157,191,332,236,297,56]},{"id":"2874_17248","name":"UCO Bank Junction","lat":12.93564,"lon":77.61716,"tier":"P1","counts":[72,115,67,98,176,16]},{"id":"2889_17238","name":"Sri Venkataranga Ayangar Road","lat":13.00225,"lon":77.57126,"tier":"P1","counts":[73,74,80,44,117,53]},{"id":"2888_17238","name":"Sri Venkataranga Ayangar Road","lat":12.99891,"lon":77.57143,"tier":"P1","counts":[142,205,264,324,277,141]},{"id":"2879_17226","name":"Gnana Bharathi Road","lat":12.95737,"lon":77.5187,"tier":"P1","counts":[50,72,118,49,130,38]},{"id":"2879_17238","name":"Shivasankara Circle","lat":12.95847,"lon":77.57408,"tier":"P1","counts":[5,51,19,77,115,3]},{"id":"2888_17233","name":"Modi Bridge Junction","lat":12.99885,"lon":77.55013,"tier":"P1","counts":[820,1210,809,879,960,407]},{"id":"2853_17255","name":"Neeladri Road","lat":12.84154,"lon":77.64835,"tier":"P1","counts":[21,38,23,79,125,40]},{"id":"2882_17230","name":"Vijayanagar Bus Stand Junction","lat":12.97188,"lon":77.53768,"tier":"P1","counts":[52,220,48,151,171,44]},{"id":"2883_17232","name":"Hosahalli Metro Station","lat":12.97462,"lon":77.54553,"tier":"P1","counts":[404,885,1069,694,812,141]},{"id":"2887_17259","name":"Old Madras Road","lat":12.99577,"lon":77.66778,"tier":"P1","counts":[52,82,46,66,107,14]},{"id":"2882_17239","name":"Sagar Theatre Junction","lat":12.97156,"lon":77.57728,"tier":"P1","counts":[704,833,1155,771,867,255]},{"id":"2875_17265","name":"Kadubeesanahalli Underpass","lat":12.93966,"lon":77.69561,"tier":"P1","counts":[110,398,320,378,336,5]},{"id":"2882_17243","name":"Siddalingaiah Circle","lat":12.97142,"lon":77.59713,"tier":"P1","counts":[187,254,89,85,188,32]},{"id":"2883_17238","name":"Danvanthri Road Junction","lat":12.97662,"lon":77.57461,"tier":"P1","counts":[462,629,572,282,488,157]},{"id":"2871_17249","name":"Madiwala Traffic PS Junction","lat":12.92187,"lon":77.62139,"tier":"P1","counts":[6,6,21,20,96,21]},{"id":"2869_17238","name":"9th Cross, Kanakapura Road","lat":12.91199,"lon":77.57296,"tier":"P1","counts":[24,24,12,32,77,4]},{"id":"2872_17251","name":"80 Feet Road","lat":12.92598,"lon":77.63346,"tier":"P1","counts":[5,15,30,11,67,12]},{"id":"2861_17243","name":"Shri Ramalingeshwara Cave Temple Road","lat":12.87634,"lon":77.59596,"tier":"P1","counts":[36,50,40,151,179,24]},{"id":"2888_17240","name":"J Lingaiah Road","lat":12.99771,"lon":77.58312,"tier":"P1","counts":[51,67,91,44,113,10]},{"id":"2884_17245","name":"Safina Plaza Junction","lat":12.9815,"lon":77.60548,"tier":"P1","counts":[567,347,481,426,454,82]},{"id":"2873_17251","name":"Srinivagilu Main Road","lat":12.93189,"lon":77.63208,"tier":"P1","counts":[30,40,27,160,143,110]},{"id":"2878_17231","name":"Gali Anjaneya Temple","lat":12.95312,"lon":77.54204,"tier":"P1","counts":[177,274,232,251,245,22]},{"id":"2886_17233","name":"Dr. Bheem Rao Palace, Chord Road","lat":12.98933,"lon":77.55071,"tier":"P1","counts":[63,158,94,235,152,40]},{"id":"2882_17269","name":"ITPL Main Road","lat":12.97146,"lon":77.71194,"tier":"P1","counts":[16,85,180,156,137,8]},{"id":"2885_17234","name":"Bhashyam Circle","lat":12.98537,"lon":77.55431,"tier":"P1","counts":[102,148,106,301,181,77]},{"id":"2882_17248","name":"Midford Garden Lane","lat":12.97222,"lon":77.61824,"tier":"P1","counts":[133,148,100,107,149,66]},{"id":"2870_17260","name":"Sarjapura Main Road","lat":12.91735,"lon":77.67237,"tier":"P1","counts":[19,30,28,32,65,19]},{"id":"2887_17234","name":"RR Kalyana Mantapa, Dr. Rajkumar Road","lat":12.99344,"lon":77.5545,"tier":"P1","counts":[93,99,172,93,136,71]},{"id":"2888_17247","name":"Robertson Road","lat":12.99736,"lon":77.6142,"tier":"P1","counts":[11,17,43,53,104,8]},{"id":"2895_17230","name":"Mumbai Bengaluru Highway","lat":13.03028,"lon":77.53698,"tier":"P1","counts":[87,135,103,111,119,30]},{"id":"2879_17239","name":"Medical College Circle","lat":12.95889,"lon":77.57702,"tier":"P1","counts":[137,277,348,317,251,124]},{"id":"2893_17234","name":"Subedar Chatram Road","lat":13.0198,"lon":77.55585,"tier":"P1","counts":[7,11,14,9,93,5]},{"id":"2874_17226","name":"Sri Sri Sri Tiruchi Mahaswamiji Road","lat":12.93588,"lon":77.51809,"tier":"P1","counts":[9,48,39,69,104,6]},{"id":"2879_17240","name":"JC Road Junction","lat":12.95759,"lon":77.58139,"tier":"P1","counts":[16,49,51,41,83,46]},{"id":"2888_17237","name":"Siddavanahalli Krishna Sharma Road","lat":12.99854,"lon":77.56938,"tier":"P1","counts":[84,111,191,274,174,94]},{"id":"2876_17243","name":"10th Cross, Wilson Garden","lat":12.94497,"lon":77.59554,"tier":"P1","counts":[41,38,19,125,99,35]},{"id":"2861_17255","name":"Hosur Road","lat":12.87571,"lon":77.64815,"tier":"P1","counts":[27,30,32,35,77,2]},{"id":"2879_17254","name":"Golf Avenue Road","lat":12.959,"lon":77.64556,"tier":"P1","counts":[33,73,118,80,107,9]},{"id":"2868_17250","name":"Begur Main Road","lat":12.9071,"lon":77.62868,"tier":"P1","counts":[18,22,88,132,97,9]},{"id":"2882_17233","name":"Cholurpalya Junction, Magadi Road","lat":12.9734,"lon":77.55092,"tier":"P1","counts":[125,163,240,107,202,41]},{"id":"2869_17250","name":"Hosur Road","lat":12.91217,"lon":77.62596,"tier":"P1","counts":[25,24,61,98,75,14]},{"id":"2876_17238","name":"Tagore Park Junction","lat":12.94379,"lon":77.57127,"tier":"P1","counts":[188,214,413,359,251,212]},{"id":"2892_17234","name":"Mumbai Bengaluru Highway","lat":13.01551,"lon":77.5553,"tier":"P1","counts":[9,43,58,33,57,21]},{"id":"2895_17238","name":"80 Feet Road","lat":13.02805,"lon":77.57346,"tier":"P1","counts":[46,99,143,153,119,24]},{"id":"2880_17235","name":"Sirsi Circle","lat":12.96114,"lon":77.55983,"tier":"P1","counts":[6,19,25,14,51,9]},{"id":"2888_17234","name":"Navarang Theatre","lat":12.99829,"lon":77.55366,"tier":"P1","counts":[87,118,60,56,119,14]},{"id":"2879_17270","name":"ITPL Main Road","lat":12.95811,"lon":77.71584,"tier":"P1","counts":[9,97,162,108,101,15]},{"id":"2886_17222","name":"Magadi Main Road","lat":12.98948,"lon":77.50122,"tier":"P1","counts":[13,34,64,34,83,25]},{"id":"2884_17235","name":"Rajajinagar Entrance","lat":12.98082,"lon":77.55844,"tier":"P1","counts":[110,37,55,75,90,17]},{"id":"2882_17254","name":"12th Main Road","lat":12.97059,"lon":77.64634,"tier":"P1","counts":[59,247,170,92,124,14]},{"id":"2876_17241","name":"Siddhapura Road","lat":12.94556,"lon":77.58707,"tier":"P1","counts":[19,37,7,10,74,12]},{"id":"2903_17241","name":"20th Main Road","lat":13.06372,"lon":77.58735,"tier":"P1","counts":[22,10,38,38,60,3]},{"id":"2890_17238","name":"Sri Venkataranga Ayangar Road","lat":13.00708,"lon":77.57117,"tier":"P1","counts":[321,503,208,547,290,130]},{"id":"2886_17244","name":"Queens Road","lat":12.98959,"lon":77.59938,"tier":"P1","counts":[205,154,136,134,147,62]},{"id":"2882_17253","name":"Domlur Inner Ring Road","lat":12.96966,"lon":77.6411,"tier":"P1","counts":[87,154,115,142,122,23]},{"id":"2873_17264","name":"New Horizon College Road","lat":12.93264,"lon":77.69086,"tier":"P1","counts":[102,186,415,330,237,17]},{"id":"2903_17242","name":"20th Main Road","lat":13.06417,"lon":77.5904,"tier":"P1","counts":[7,34,40,29,67,2]},{"id":"2884_17253","name":"Chinmaya Mission Hospital Road","lat":12.97879,"lon":77.64037,"tier":"P1","counts":[27,122,61,46,88,3]},{"id":"2872_17262","name":"Outer Ring Road","lat":12.92749,"lon":77.6801,"tier":"P1","counts":[44,69,386,171,161,63]},{"id":"2869_17241","name":"9th Cross, 24th Main, JP Nagar","lat":12.91248,"lon":77.58593,"tier":"P1","counts":[25,74,22,34,62,3]},{"id":"2870_17238","name":"Sahasra Hospital, Jayanagar","lat":12.91704,"lon":77.5735,"tier":"P1","counts":[101,120,53,50,98,20]},{"id":"2889_17233","name":"1st Block Junction, Rajajinagar","lat":13.00216,"lon":77.55016,"tier":"P1","counts":[180,308,242,180,176,54]},{"id":"2881_17240","name":"NR Road, SP Road Junction","lat":12.96545,"lon":77.58338,"tier":"P1","counts":[182,331,199,457,216,82]},{"id":"2879_17241","name":"Urvashi Theater","lat":12.95769,"lon":77.58631,"tier":"P1","counts":[44,87,101,73,80,24]},{"id":"2880_17233","name":"C Chowdappa Main Road","lat":12.96398,"lon":77.55111,"tier":"P1","counts":[3,23,44,26,56,28]},{"id":"2881_17237","name":"Briyand Circle","lat":12.96763,"lon":77.56817,"tier":"P1","counts":[27,22,13,18,46,12]},{"id":"2862_17254","name":"Hosur Road","lat":12.88086,"lon":77.64506,"tier":"P1","counts":[11,31,34,17,59,0]},{"id":"2875_17239","name":"Yediyur Junction","lat":12.93879,"lon":77.57821,"tier":"P1","counts":[27,20,43,18,49,56]},{"id":"2879_17237","name":"Baleyele Junction","lat":12.95797,"lon":77.56871,"tier":"P1","counts":[49,8,6,17,56,5]},{"id":"2876_17237","name":"5th Main Road","lat":12.94496,"lon":77.56981,"tier":"P1","counts":[66,78,55,39,64,101]},{"id":"2871_17259","name":"Outer Ring Road","lat":12.92177,"lon":77.66739,"tier":"P1","counts":[18,23,24,14,47,5]},{"id":"2883_17242","name":"Gopal Gowda Circle","lat":12.97737,"lon":77.59036,"tier":"P1","counts":[43,92,22,15,87,5]},{"id":"2891_17266","name":"MBT Road","lat":13.01054,"lon":77.6977,"tier":"P1","counts":[29,74,66,52,58,10]},{"id":"2872_17261","name":"Outer Ring Road","lat":12.9262,"lon":77.67705,"tier":"P1","counts":[97,86,200,201,119,44]},{"id":"2864_17253","name":"Hosur Road","lat":12.89026,"lon":77.63948,"tier":"P1","counts":[56,25,35,29,51,24]},{"id":"2888_17232","name":"Modi Hospital Junction","lat":12.99758,"lon":77.54731,"tier":"P1","counts":[47,209,209,328,147,50]},{"id":"2896_17241","name":"Bellary Road","lat":13.03487,"lon":77.58882,"tier":"P1","counts":[150,239,234,203,159,13]},{"id":"2893_17235","name":"Triveni Road","lat":13.01881,"lon":77.55802,"tier":"P1","counts":[38,35,26,0,69,0]},{"id":"2883_17240","name":"Sagar Theatre Junction","lat":12.97616,"lon":77.58108,"tier":"P1","counts":[336,384,452,246,191,56]},{"id":"2882_17257","name":"Pusa Thippasandra Main Road","lat":12.97175,"lon":77.65808,"tier":"P1","counts":[40,338,374,136,168,32]},{"id":"2880_17254","name":"17th Main, Doopanahalli Bus Stop","lat":12.96025,"lon":77.64466,"tier":"P1","counts":[17,41,71,83,62,12]},{"id":"2878_17241","name":"Urvashi Theater","lat":12.95482,"lon":77.58567,"tier":"P1","counts":[49,62,54,81,62,36]},{"id":"2881_17241","name":"Hudson Circle","lat":12.96718,"lon":77.5872,"tier":"P1","counts":[123,139,100,207,113,39]},{"id":"2887_17247","name":"Coles Road","lat":12.99505,"lon":77.61407,"tier":"P1","counts":[106,127,230,139,135,12]},{"id":"2879_17234","name":"Bangalore Builders Junction","lat":12.95844,"lon":77.55481,"tier":"P1","counts":[2,14,6,11,39,1]},{"id":"2883_17247","name":"Mahatma Gandhi Road","lat":12.97394,"lon":77.61445,"tier":"P1","counts":[70,107,161,104,86,22]},{"id":"2884_17234","name":"Basava Mantapa, Dr. Rajkumar Road","lat":12.97997,"lon":77.55474,"tier":"P1","counts":[59,62,86,47,65,21]},{"id":"2887_17266","name":"Whitefield Road","lat":12.99494,"lon":77.69802,"tier":"P1","counts":[31,24,81,26,63,33]},{"id":"2890_17232","name":"Mahalaxmi Layout Entrance","lat":13.00804,"lon":77.54832,"tier":"P1","counts":[64,41,55,108,87,21]},{"id":"2879_17259","name":"Dr BR Ambedkar Road","lat":12.95857,"lon":77.66808,"tier":"P1","counts":[0,5,90,47,119,0]},{"id":"2881_17232","name":"1st Main Road","lat":12.96733,"lon":77.54562,"tier":"P1","counts":[23,24,39,18,55,3]},{"id":"2868_17238","name":"JP Nagar Metro, ORR","lat":12.90756,"lon":77.57324,"tier":"P1","counts":[22,6,3,6,42,3]},{"id":"2887_17238","name":"Sri Venkataranga Ayangar Road","lat":12.99434,"lon":77.57168,"tier":"P1","counts":[125,242,98,299,132,88]},{"id":"2890_17237","name":"15th Cross Road","lat":13.00646,"lon":77.56975,"tier":"P1","counts":[297,356,264,306,185,30]},{"id":"2877_17243","name":"10th Cross, Wilson Garden","lat":12.94875,"lon":77.59682,"tier":"P1","counts":[13,30,5,21,42,22]},{"id":"2879_17255","name":"Old Airport Road","lat":12.95939,"lon":77.64907,"tier":"P1","counts":[34,123,55,68,70,17]},{"id":"2882_17247","name":"Mahatma Gandhi Road","lat":12.97303,"lon":77.61516,"tier":"P1","counts":[66,88,100,64,78,7]},{"id":"2882_17240","name":"Mysore Bank Junction","lat":12.97263,"lon":77.58096,"tier":"P1","counts":[171,176,134,65,104,50]},{"id":"2881_17230","name":"5th Main Road, RPC Layout","lat":12.9655,"lon":77.53737,"tier":"P1","counts":[571,550,488,558,236,31]},{"id":"2885_17239","name":"Shivananda Circle","lat":12.98387,"lon":77.57781,"tier":"P1","counts":[92,94,76,48,70,21]},{"id":"2880_17255","name":"5th Main Road","lat":12.96123,"lon":77.64923,"tier":"P1","counts":[31,19,35,70,59,4]},{"id":"2879_17267","name":"HAL Airport Road","lat":12.95699,"lon":77.70279,"tier":"P1","counts":[52,81,136,73,68,4]},{"id":"2886_17248","name":"Tank Road","lat":12.98768,"lon":77.61836,"tier":"P1","counts":[12,30,27,14,51,8]},{"id":"2885_17238","name":"Padmabhushan Dr RK Srikantan Road","lat":12.98582,"lon":77.57447,"tier":"P2","counts":[54,73,52,55,57,1]},{"id":"2884_17240","name":"Subbanna Junction","lat":12.97889,"lon":77.581,"tier":"P2","counts":[157,211,171,115,108,41]},{"id":"2882_17232","name":"Hosahalli Metro Station","lat":12.9713,"lon":77.54658,"tier":"P2","counts":[45,91,45,30,84,2]},{"id":"2873_17246","name":"Hosur-Tavarkere Road Junction","lat":12.93046,"lon":77.60964,"tier":"P2","counts":[72,33,70,34,50,10]},{"id":"2888_17231","name":"Shankara Mutt Circle, Vijayanagar","lat":12.99881,"lon":77.54174,"tier":"P2","counts":[36,152,100,233,102,17]},{"id":"2879_17266","name":"Marathahalli Underpass","lat":12.95769,"lon":77.70095,"tier":"P2","counts":[79,209,193,169,110,63]},{"id":"2890_17242","name":"Jayamahal Main Road","lat":13.00651,"lon":77.59287,"tier":"P2","counts":[4,20,10,9,37,2]},{"id":"2880_17234","name":"Hosahalli Main Road","lat":12.96407,"lon":77.55487,"tier":"P2","counts":[50,72,119,83,72,9]},{"id":"2871_17240","name":"36th Cross, 4th Main, Jayanagar","lat":12.92146,"lon":77.5808,"tier":"P2","counts":[16,82,21,33,59,5]},{"id":"2931_17254","name":"Bengaluru Bellary Road","lat":13.19122,"lon":77.64621,"tier":"P2","counts":[42,307,210,86,99,2]},{"id":"2886_17245","name":"Cock Burn Road","lat":12.98976,"lon":77.60378,"tier":"P2","counts":[14,9,18,25,39,3]},{"id":"2888_17246","name":"Robertson Road","lat":12.9993,"lon":77.61058,"tier":"P2","counts":[64,145,181,94,109,17]},{"id":"2895_17241","name":"11th Cross Road","lat":13.02806,"lon":77.5862,"tier":"P2","counts":[8,26,27,40,44,5]},{"id":"2876_17266","name":"Outer Ring Road","lat":12.94405,"lon":77.69781,"tier":"P2","counts":[58,61,133,61,75,0]},{"id":"2872_17240","name":"New Diagonal Road, Jayanagar","lat":12.92787,"lon":77.5811,"tier":"P2","counts":[30,184,117,58,88,36]},{"id":"2865_17271","name":"Sarjapura Main Road","lat":12.89666,"lon":77.72004,"tier":"P2","counts":[11,17,28,38,44,10]},{"id":"2880_17252","name":"Sri Hatti Maramma Circle, Domluru","lat":12.96123,"lon":77.63674,"tier":"P2","counts":[34,60,41,19,54,6]},{"id":"2904_17242","name":"RK Road Number 7","lat":13.07088,"lon":77.59242,"tier":"P2","counts":[26,90,133,68,79,85]},{"id":"2889_17261","name":"MBT Road","lat":13.00079,"lon":77.67693,"tier":"P2","counts":[8,89,62,146,70,11]},{"id":"2872_17233","name":"Katriguppe Junction","lat":12.92669,"lon":77.55075,"tier":"P2","counts":[9,92,10,22,61,106]},{"id":"2886_17234","name":"ESI Hospital, Rajajinagar","lat":12.98944,"lon":77.55444,"tier":"P2","counts":[39,86,81,75,62,112]},{"id":"2900_17233","name":"Rajatha Bhavana Road","lat":13.051,"lon":77.55265,"tier":"P2","counts":[17,21,26,43,48,8]},{"id":"2898_17223","name":"Mumbai Bengaluru Highway","lat":13.04522,"lon":77.50674,"tier":"P2","counts":[11,10,19,11,38,8]},{"id":"2880_17236","name":"Police Quarters, Sultan Road","lat":12.96042,"lon":77.56334,"tier":"P2","counts":[24,6,4,4,28,13]},{"id":"2875_17242","name":"8th Main Road","lat":12.9383,"lon":77.59266,"tier":"P2","counts":[7,13,19,18,31,5]},{"id":"2890_17240","name":"Sankey Road","lat":13.00616,"lon":77.581,"tier":"P2","counts":[11,19,1,19,30,17]},{"id":"2884_17250","name":"Old Madras Road","lat":12.97929,"lon":77.629,"tier":"P2","counts":[40,17,56,34,43,4]},{"id":"2864_17236","name":"Konanakunte Main Road","lat":12.88885,"lon":77.56301,"tier":"P2","counts":[29,52,54,33,64,29]},{"id":"2887_17230","name":"8th Main Road Basaveshwara Nagar","lat":12.99216,"lon":77.53854,"tier":"P2","counts":[5,4,7,74,62,1]},{"id":"2880_17244","name":"Nanjappa Circle","lat":12.96197,"lon":77.59913,"tier":"P2","counts":[114,302,177,146,164,31]},{"id":"2931_17262","name":"Unnamed Road","lat":13.1907,"lon":77.6807,"tier":"P2","counts":[27,30,65,70,57,0]},{"id":"2878_17239","name":"Minerva Circle","lat":12.9545,"lon":77.57879,"tier":"P2","counts":[20,23,14,37,52,0]},{"id":"2872_17248","name":"Madiwala Traffic PS Junction","lat":12.92537,"lon":77.61853,"tier":"P2","counts":[3,87,120,159,72,10]},{"id":"2875_17266","name":"Panathur Main Road","lat":12.93816,"lon":77.69872,"tier":"P2","counts":[75,88,159,31,61,17]},{"id":"2883_17234","name":"Prasanna Junction","lat":12.97574,"lon":77.55561,"tier":"P2","counts":[13,19,19,20,41,9]},{"id":"2895_17231","name":"Mumbai Bengaluru Highway","lat":13.02819,"lon":77.54154,"tier":"P2","counts":[36,73,44,48,54,4]},{"id":"2883_17248","name":"Murphy Road","lat":12.9748,"lon":77.61994,"tier":"P2","counts":[27,62,30,63,45,36]},{"id":"2889_17279","name":"Whitefield Main Road","lat":13.003,"lon":77.7572,"tier":"P2","counts":[8,24,5,14,35,3]},{"id":"2869_17252","name":"14th Main Road","lat":12.91217,"lon":77.63695,"tier":"P2","counts":[151,423,346,176,107,45]},{"id":"2870_17241","name":"Aurobindo Circle, ORR","lat":12.91634,"lon":77.58581,"tier":"P2","counts":[4,23,4,7,33,1]},{"id":"2888_17248","name":"Madhavaraya Mudaliar Road","lat":12.99846,"lon":77.61848,"tier":"P2","counts":[15,26,34,16,38,8]},{"id":"2865_17244","name":"Bannerghatta Main Road","lat":12.89487,"lon":77.59905,"tier":"P2","counts":[2,29,40,36,54,10]},{"id":"2894_17241","name":"Bellary Road","lat":13.02436,"lon":77.58522,"tier":"P2","counts":[27,57,114,108,57,51]},{"id":"2890_17239","name":"13th Cross Road","lat":13.00717,"lon":77.57905,"tier":"P2","counts":[7,31,15,15,32,16]},{"id":"2883_17236","name":"Leprosy Hospital Junction","lat":12.97548,"lon":77.56458,"tier":"P2","counts":[15,19,14,26,39,5]},{"id":"2877_17239","name":"Lalbagh West Gate","lat":12.94899,"lon":77.57784,"tier":"P2","counts":[25,23,29,26,42,21]},{"id":"2892_17229","name":"Dr Rajkumar Puniya Bhoomi Road","lat":13.01724,"lon":77.53143,"tier":"P2","counts":[25,102,84,52,47,49]},{"id":"2902_17242","name":"20th Main Road","lat":13.06281,"lon":77.59222,"tier":"P2","counts":[39,56,26,65,50,4]},{"id":"2890_17263","name":"MBT Road","lat":13.00573,"lon":77.68584,"tier":"P2","counts":[232,267,286,98,100,1]},{"id":"2899_17238","name":"Bhadrappa Flyover","lat":13.04752,"lon":77.57389,"tier":"P2","counts":[6,15,35,55,42,41]},{"id":"2874_17265","name":"Embassy Tech Square Main Road","lat":12.93636,"lon":77.69298,"tier":"P2","counts":[22,73,90,43,50,3]},{"id":"2886_17242","name":"LRDE Junction","lat":12.98879,"lon":77.59217,"tier":"P2","counts":[59,63,32,25,46,13]},{"id":"2877_17244","name":"10th Cross, Wilson Garden","lat":12.94848,"lon":77.59846,"tier":"P2","counts":[3,1,3,5,59,15]},{"id":"2867_17241","name":"15th Cross, 24th Main, JP Nagar","lat":12.9043,"lon":77.58574,"tier":"P2","counts":[0,14,22,1,30,2]},{"id":"2875_17237","name":"5th Main Road","lat":12.941,"lon":77.56682,"tier":"P2","counts":[35,22,53,24,38,38]},{"id":"2894_17239","name":"80 Feet Road","lat":13.0271,"lon":77.57862,"tier":"P2","counts":[38,48,38,58,43,73]},{"id":"2882_17242","name":"Siddalingaiah Circle","lat":12.97075,"lon":77.59231,"tier":"P2","counts":[5,13,25,6,38,5]},{"id":"2882_17223","name":"Kengeri Main Road","lat":12.97156,"lon":77.50755,"tier":"P2","counts":[10,14,26,21,29,3]},{"id":"2890_17228","name":"Dr Rajkumar Puniya Bhoomi Road","lat":13.00772,"lon":77.5268,"tier":"P2","counts":[50,95,49,125,27,31]},{"id":"2874_17251","name":"Srinivagilu Main Road","lat":12.93355,"lon":77.6307,"tier":"P2","counts":[2,10,6,42,35,19]},{"id":"2888_17260","name":"Outer Ring Road","lat":12.99814,"lon":77.67141,"tier":"P2","counts":[20,21,27,27,27,4]},{"id":"2880_17241","name":"Swagath Poornima Theatre","lat":12.96139,"lon":77.58656,"tier":"P2","counts":[15,60,36,84,45,3]},{"id":"2882_17238","name":"AS Char Main Road","lat":12.97012,"lon":77.57512,"tier":"P2","counts":[24,69,69,40,45,16]},{"id":"2888_17236","name":"4th Main Road","lat":12.99637,"lon":77.56323,"tier":"P2","counts":[108,58,63,137,90,30]},{"id":"2896_17235","name":"MS Ramaiah Road","lat":13.03349,"lon":77.5581,"tier":"P2","counts":[4,7,23,70,48,0]},{"id":"2879_17232","name":"Sri Skanda Complex, Mysore Road","lat":12.95589,"lon":77.54623,"tier":"P2","counts":[1,13,14,20,25,1]},{"id":"2873_17241","name":"Geetha Junction","lat":12.93034,"lon":77.58606,"tier":"P2","counts":[38,70,72,37,49,3]},{"id":"2872_17241","name":"33rd Cross, 11th Main, Jayanagar","lat":12.92683,"lon":77.58614,"tier":"P2","counts":[72,95,74,69,50,40]},{"id":"2899_17277","name":"MBT Road","lat":13.04591,"lon":77.75035,"tier":"P2","counts":[18,43,33,26,28,8]},{"id":"2875_17246","name":"Adugodi Junction","lat":12.93946,"lon":77.60948,"tier":"P2","counts":[7,1,1,16,30,9]},{"id":"2898_17225","name":"KIADB Road","lat":13.04192,"lon":77.51461,"tier":"P2","counts":[4,21,21,14,33,11]},{"id":"2880_17238","name":"AS Char Street, Mysore Road","lat":12.96367,"lon":77.57297,"tier":"P2","counts":[14,15,24,62,34,13]},{"id":"2881_17270","name":"ITPL Main Road","lat":12.96532,"lon":77.71816,"tier":"P2","counts":[0,246,462,233,128,0]},{"id":"2892_17233","name":"1st Main Road","lat":13.01602,"lon":77.55002,"tier":"P2","counts":[6,24,10,21,29,0]},{"id":"2902_17239","name":"Kodigehalli Main Road","lat":13.06034,"lon":77.5766,"tier":"P2","counts":[9,6,18,31,34,3]},{"id":"2867_17253","name":"27th Cross Road","lat":12.90375,"lon":77.64177,"tier":"P2","counts":[5,4,20,20,26,8]},{"id":"2887_17243","name":"Millers Road","lat":12.99244,"lon":77.59472,"tier":"P2","counts":[9,19,20,12,35,7]},{"id":"2895_17237","name":"Padmasri CK Venkata Ramaiah Road","lat":13.02903,"lon":77.57078,"tier":"P2","counts":[7,33,2,15,54,36]},{"id":"2880_17224","name":"Mallathahalli Road","lat":12.961,"lon":77.5116,"tier":"P2","counts":[68,120,108,56,28,20]},{"id":"2871_17246","name":"16th Main Road, BTM Layout","lat":12.92089,"lon":77.61074,"tier":"P2","counts":[6,34,13,5,24,10]},{"id":"2870_17239","name":"Rajalakshmi Kalyana Mantapa, JP Nagar","lat":12.91732,"lon":77.57804,"tier":"P2","counts":[23,46,37,15,33,8]},{"id":"2896_17249","name":"5th Cross Road","lat":13.03444,"lon":77.62407,"tier":"P2","counts":[26,68,84,17,59,0]},{"id":"2882_17246","name":"Brigade Road","lat":12.97201,"lon":77.60801,"tier":"P2","counts":[58,52,69,78,47,13]},{"id":"2869_17233","name":"Subramanyapura Main Road","lat":12.91142,"lon":77.55205,"tier":"P2","counts":[1,2,12,2,23,0]},{"id":"2864_17252","name":"Hosur Road","lat":12.89194,"lon":77.63802,"tier":"P2","counts":[40,73,66,50,41,7]},{"id":"2873_17225","name":"Sri Sri Sri Tiruchi Mahaswamiji Road","lat":12.93186,"lon":77.51562,"tier":"P2","counts":[7,8,24,30,26,0]},{"id":"2888_17241","name":"Windsor Circle","lat":12.99643,"lon":77.58464,"tier":"P2","counts":[14,22,23,1,24,8]},{"id":"2880_17253","name":"17th Main, Doopanahalli Bus Stop","lat":12.96281,"lon":77.64151,"tier":"P2","counts":[19,61,88,56,40,10]},{"id":"2880_17270","name":"ITPL Main Road","lat":12.96286,"lon":77.71732,"tier":"P2","counts":[1,128,385,101,58,5]},{"id":"2888_17235","name":"5th Cross Road","lat":12.99756,"lon":77.55955,"tier":"P2","counts":[8,17,30,8,32,10]},{"id":"2875_17248","name":"20th Main Road","lat":12.93955,"lon":77.61955,"tier":"P2","counts":[0,2,6,5,40,18]},{"id":"2885_17278","name":"Whitefield Main Road","lat":12.98337,"lon":77.75209,"tier":"P2","counts":[5,9,6,4,31,1]},{"id":"2887_17246","name":"Saunders Road","lat":12.99447,"lon":77.60981,"tier":"P2","counts":[77,97,137,89,43,4]},{"id":"2866_17261","name":"Amrutha College Road","lat":12.89965,"lon":77.67545,"tier":"P2","counts":[125,92,140,80,48,29]},{"id":"2929_17264","name":"Unnamed Road","lat":13.1841,"lon":77.68958,"tier":"P2","counts":[2,5,13,9,39,0]},{"id":"2901_17242","name":"4th Cross Road","lat":13.05813,"lon":77.59176,"tier":"P2","counts":[24,34,68,67,34,12]},{"id":"2887_17242","name":"Windsor Circle","lat":12.99365,"lon":77.58953,"tier":"P2","counts":[192,370,319,155,98,13]},{"id":"2883_17249","name":"Old Madras Road","lat":12.97397,"lon":77.62316,"tier":"P2","counts":[32,109,107,74,36,13]},{"id":"2880_17274","name":"Nallurahalli Road","lat":12.96364,"lon":77.73312,"tier":"P2","counts":[0,7,34,9,30,1]},{"id":"2882_17245","name":"Brigade Road","lat":12.97038,"lon":77.60641,"tier":"P2","counts":[71,223,137,102,31,12]},{"id":"2888_17264","name":"Whitefield Road","lat":12.99832,"lon":77.68941,"tier":"P2","counts":[0,2,17,52,27,6]},{"id":"2880_17267","name":"Outer Ring Road","lat":12.96097,"lon":77.7017,"tier":"P2","counts":[4,13,34,31,28,3]},{"id":"2861_17254","name":"Hosur Road","lat":12.8769,"lon":77.647,"tier":"P2","counts":[8,20,16,6,28,1]},{"id":"2884_17231","name":"Jai Muni Rao Circle","lat":12.97852,"lon":77.54275,"tier":"P2","counts":[31,79,74,69,42,6]},{"id":"2876_17228","name":"Nayandahalli Junction","lat":12.94474,"lon":77.52808,"tier":"P2","counts":[1,12,27,22,24,1]},{"id":"2881_17257","name":"1st Cross Road","lat":12.96685,"lon":77.65843,"tier":"P2","counts":[0,0,5,0,79,2]},{"id":"2887_17241","name":"Windsor Circle","lat":12.9923,"lon":77.58857,"tier":"P2","counts":[140,253,135,64,63,2]},{"id":"2881_17234","name":"8th Main Road","lat":12.96478,"lon":77.55486,"tier":"P2","counts":[55,11,25,20,30,34]},{"id":"2886_17239","name":"Shivananda Circle","lat":12.98817,"lon":77.57747,"tier":"P2","counts":[54,47,26,27,33,3]},{"id":"2884_17251","name":"Old Madras Road","lat":12.98087,"lon":77.63054,"tier":"P2","counts":[13,4,29,7,23,2]},{"id":"2887_17270","name":"Hoodi Main Road","lat":12.99304,"lon":77.71691,"tier":"P2","counts":[2,18,22,4,19,20]},{"id":"2890_17264","name":"MBT Road","lat":13.00758,"lon":77.69105,"tier":"P2","counts":[5,12,15,11,21,4]},{"id":"2888_17265","name":"Whitefield Road","lat":12.99643,"lon":77.69371,"tier":"P2","counts":[5,16,37,144,43,10]},{"id":"2893_17229","name":"Dr Rajkumar Puniya Bhoomi Road","lat":13.02035,"lon":77.53205,"tier":"P2","counts":[36,42,73,70,23,21]},{"id":"2872_17265","name":"Doddakannelli Road","lat":12.92656,"lon":77.69487,"tier":"P2","counts":[29,27,32,78,33,3]},{"id":"2885_17268","name":"ITPL Main Road","lat":12.98448,"lon":77.70854,"tier":"P2","counts":[1,7,11,28,24,8]},{"id":"2890_17236","name":"Canara Union Road","lat":13.00691,"lon":77.56426,"tier":"P2","counts":[5,0,8,8,46,0]},{"id":"2868_17251","name":"Hosapalya Main Road","lat":12.90658,"lon":77.63093,"tier":"P2","counts":[88,58,45,203,33,3]},{"id":"2879_17257","name":"Old Airport Road","lat":12.95838,"lon":77.65876,"tier":"P2","counts":[11,10,3,7,26,3]},{"id":"2897_17226","name":"Jalahalli Cross Road","lat":13.03987,"lon":77.51873,"tier":"P2","counts":[25,76,53,54,30,12]},{"id":"2877_17270","name":"Vibgyor High School Road","lat":12.95041,"lon":77.71761,"tier":"P2","counts":[0,0,0,22,52,5]},{"id":"2872_17246","name":"Thavarekere Main Road","lat":12.92631,"lon":77.60894,"tier":"P2","counts":[51,40,20,9,15,6]},{"id":"2897_17242","name":"Hebbal Flyover","lat":13.03888,"lon":77.58965,"tier":"P2","counts":[21,40,40,56,34,14]},{"id":"2880_17231","name":"Sri Sankasta Hara Ganapati Temple Road","lat":12.96429,"lon":77.54112,"tier":"P2","counts":[54,54,20,71,47,15]},{"id":"2866_17252","name":"Hosur Road","lat":12.89796,"lon":77.63483,"tier":"P2","counts":[12,11,9,10,29,0]},{"id":"2878_17242","name":"Shanti Nagar TTMC","lat":12.95367,"lon":77.59144,"tier":"P2","counts":[70,49,55,46,19,15]},{"id":"2885_17274","name":"Pattandur Agrahara Road","lat":12.98616,"lon":77.7339,"tier":"P2","counts":[0,8,48,20,47,3]},{"id":"2902_17241","name":"15th Cross Road","lat":13.06206,"lon":77.58708,"tier":"P2","counts":[28,30,66,43,29,0]},{"id":"2878_17246","name":"Anepalya Junction","lat":12.9516,"lon":77.60785,"tier":"P2","counts":[0,0,56,5,34,7]},{"id":"2873_17265","name":"BSR Paradise Road","lat":12.93124,"lon":77.69513,"tier":"P2","counts":[7,61,88,89,39,15]},{"id":"2879_17235","name":"Sirsi Circle","lat":12.95871,"lon":77.55924,"tier":"P2","counts":[3,6,2,2,21,0]},{"id":"2883_17246","name":"Brigade Road","lat":12.97457,"lon":77.60847,"tier":"P2","counts":[75,74,87,133,18,18]},{"id":"2885_17235","name":"Rajajinagar Entrance","lat":12.98437,"lon":77.56014,"tier":"P2","counts":[7,97,67,49,35,12]},{"id":"2886_17241","name":"Windsor Circle","lat":12.99124,"lon":77.58854,"tier":"P2","counts":[184,299,197,25,15,6]},{"id":"2885_17243","name":"Coffee Board Junction","lat":12.98502,"lon":77.59451,"tier":"P2","counts":[38,21,15,20,26,10]},{"id":"2884_17236","name":"Rajajinagar Entrance","lat":12.98186,"lon":77.56353,"tier":"P2","counts":[59,23,13,34,30,11]},{"id":"2879_17256","name":"Old Airport Road","lat":12.95924,"lon":77.65468,"tier":"P2","counts":[8,24,9,32,20,5]},{"id":"2862_17243","name":"Bannerghatta Main Road","lat":12.88182,"lon":77.59596,"tier":"P2","counts":[3,6,14,35,25,7]},{"id":"2884_17252","name":"Chinmaya Mission Hospital Road","lat":12.97882,"lon":77.63793,"tier":"P2","counts":[2,28,24,24,27,2]},{"id":"2862_17232","name":"Konanakunte Main Road","lat":12.88021,"lon":77.54565,"tier":"P2","counts":[4,9,5,4,16,11]},{"id":"2901_17223","name":"Hesaraghatta Main Road","lat":13.05527,"lon":77.50761,"tier":"P2","counts":[12,1,19,34,21,6]},{"id":"2886_17240","name":"Shivananda Circle","lat":12.98731,"lon":77.5805,"tier":"P2","counts":[14,51,45,14,26,2]},{"id":"2860_17256","name":"Hosa Road","lat":12.87082,"lon":77.65448,"tier":"P2","counts":[21,24,22,265,45,11]},{"id":"2884_17254","name":"Sir CV Raman Hospital Road","lat":12.97934,"lon":77.64531,"tier":"P2","counts":[1,3,33,8,29,2]},{"id":"2874_17244","name":"Dairy Circle","lat":12.93657,"lon":77.60163,"tier":"P2","counts":[23,52,34,30,15,20]},{"id":"2891_17240","name":"Mekhri Circle","lat":13.01098,"lon":77.58366,"tier":"P2","counts":[6,1,0,4,15,25]},{"id":"2868_17242","name":"Delmia Circle","lat":12.90633,"lon":77.59124,"tier":"P2","counts":[26,15,14,7,21,1]},{"id":"2867_17251","name":"Hosur Road","lat":12.90493,"lon":77.6304,"tier":"P2","counts":[28,29,29,20,24,3]},{"id":"2886_17247","name":"Memorial Road","lat":12.9903,"lon":77.61217,"tier":"P2","counts":[0,17,17,4,27,1]},{"id":"2875_17229","name":"60 Feet Road","lat":12.93847,"lon":77.53334,"tier":"P2","counts":[0,2,2,12,35,4]},{"id":"2874_17239","name":"Yediyur Junction","lat":12.93709,"lon":77.57696,"tier":"P2","counts":[5,3,9,3,18,8]},{"id":"2899_17221","name":"Mumbai Bengaluru Highway","lat":13.04901,"lon":77.49763,"tier":"P2","counts":[5,13,20,15,19,11]},{"id":"2880_17237","name":"Briyand Circle","lat":12.96299,"lon":77.56925,"tier":"P2","counts":[3,22,3,13,16,5]},{"id":"2890_17249","name":"Lingarajapuram Flyover","lat":13.00694,"lon":77.62143,"tier":"P2","counts":[1,0,4,0,33,62]},{"id":"2878_17238","name":"VV Puram College","lat":12.95379,"lon":77.57344,"tier":"P2","counts":[6,4,2,42,30,1]},{"id":"2891_17223","name":"Rajgopal Nagar Main Road","lat":13.01071,"lon":77.50656,"tier":"P2","counts":[3,3,8,7,20,13]},{"id":"2871_17258","name":"Outer Ring Road","lat":12.92088,"lon":77.66523,"tier":"P2","counts":[30,36,43,26,28,0]},{"id":"2889_17237","name":"Siddavanahalli Krishna Sharma Road","lat":13.00191,"lon":77.56946,"tier":"P2","counts":[18,37,81,116,25,4]},{"id":"2869_17262","name":"Sarjapura Main Road","lat":12.91243,"lon":77.68105,"tier":"P2","counts":[45,36,31,33,21,16]},{"id":"2900_17242","name":"Bellary Road","lat":13.05143,"lon":77.59302,"tier":"P2","counts":[99,47,25,65,36,19]},{"id":"2867_17250","name":"Kodichikkanahalli Main Road","lat":12.90359,"lon":77.62665,"tier":"P2","counts":[7,5,6,3,27,1]},{"id":"2884_17237","name":"Shanthala Junction","lat":12.97851,"lon":77.57075,"tier":"P2","counts":[48,8,40,8,24,4]},{"id":"2881_17253","name":"17th Main, Doopanahalli Bus Stop","lat":12.96661,"lon":77.64151,"tier":"P2","counts":[9,139,61,46,17,4]},{"id":"2881_17229","name":"5th Main Road, RPC Layout","lat":12.96619,"lon":77.53481,"tier":"P2","counts":[33,35,23,14,52,0]},{"id":"2889_17234","name":"10th Cross, Dr. Rajkumar Road","lat":13.0038,"lon":77.55365,"tier":"P2","counts":[39,63,37,99,28,12]},{"id":"2887_17245","name":"Sultanji Gunta Road","lat":12.99289,"lon":77.60486,"tier":"P2","counts":[2,8,12,12,15,5]},{"id":"2882_17249","name":"Old Madras Road","lat":12.9732,"lon":77.62186,"tier":"P2","counts":[16,31,40,26,21,11]},{"id":"2894_17231","name":"Mumbai Bengaluru Highway","lat":13.02725,"lon":77.5432,"tier":"P2","counts":[25,17,17,55,37,5]},{"id":"2854_17254","name":"Neeladri Road","lat":12.84343,"lon":77.64429,"tier":"P2","counts":[28,5,13,17,19,4]},{"id":"2943_17269","name":"Sulibele Road","lat":13.24491,"lon":77.71314,"tier":"P2","counts":[13,5,1,13,14,33]},{"id":"2880_17242","name":"Devanga Hostel Junction","lat":12.96244,"lon":77.58988,"tier":"P2","counts":[20,21,9,49,19,3]},{"id":"2876_17277","name":"Muthsandra Main Road","lat":12.94247,"lon":77.74786,"tier":"P2","counts":[17,7,16,8,16,4]},{"id":"2869_17251","name":"17th Cross Road","lat":12.91248,"lon":77.63336,"tier":"P2","counts":[48,72,88,91,28,19]},{"id":"2890_17266","name":"Devasandra Main Road","lat":13.00752,"lon":77.69766,"tier":"P2","counts":[2,0,6,1,26,6]},{"id":"2869_17217","name":"Kengeri Magadi Road","lat":12.91142,"lon":77.4804,"tier":"P2","counts":[13,4,3,2,17,0]},{"id":"2871_17244","name":"Gorappanapalya Junction","lat":12.92093,"lon":77.60055,"tier":"P2","counts":[0,1,7,4,29,1]},{"id":"2895_17235","name":"MS Ramaiah Road","lat":13.02969,"lon":77.56079,"tier":"P2","counts":[4,14,3,4,16,3]},{"id":"2901_17232","name":"Soniya Gandhi Road","lat":13.05706,"lon":77.54703,"tier":"P2","counts":[27,49,19,55,15,23]},{"id":"2881_17242","name":"RRMR Junction","lat":12.968,"lon":77.59153,"tier":"P2","counts":[3,10,2,49,21,1]},{"id":"2875_17227","name":"Mysore Road","lat":12.9404,"lon":77.52433,"tier":"P2","counts":[1,22,94,0,26,18]},{"id":"2874_17246","name":"Hosur-Tavarkere Road Junction","lat":12.9355,"lon":77.60877,"tier":"P2","counts":[31,30,35,32,11,3]},{"id":"2881_17277","name":"Whitefield Main Road","lat":12.9673,"lon":77.74959,"tier":"P2","counts":[21,13,6,7,14,5]},{"id":"2888_17250","name":"Banaswadi Main Road","lat":12.99969,"lon":77.62536,"tier":"P2","counts":[0,2,9,29,23,3]},{"id":"2883_17245","name":"Church Street","lat":12.97509,"lon":77.60455,"tier":"P2","counts":[69,10,16,36,29,7]},{"id":"2869_17218","name":"Kengeri Main Road","lat":12.91408,"lon":77.48136,"tier":"P2","counts":[14,6,10,6,15,5]},{"id":"2909_17243","name":"Allalasandra Main Road","lat":13.09362,"lon":77.59438,"tier":"P2","counts":[47,76,3,147,37,8]},{"id":"2929_17263","name":"Unnamed Road","lat":13.18374,"lon":77.68568,"tier":"P2","counts":[13,19,67,76,24,1]},{"id":"2875_17238","name":"Dewan Madhava Rao Junction","lat":12.94061,"lon":77.57224,"tier":"P2","counts":[5,3,83,88,31,18]},{"id":"2897_17238","name":"3rd Main Road","lat":13.03716,"lon":77.5745,"tier":"P2","counts":[2,3,17,26,34,0]},{"id":"2883_17250","name":"Old Madras Road","lat":12.97585,"lon":77.62631,"tier":"P2","counts":[11,35,22,37,14,2]},{"id":"2874_17241","name":"T Mariyappa Road","lat":12.93722,"lon":77.58513,"tier":"P2","counts":[36,59,48,76,31,2]},{"id":"2895_17249","name":"Kempegowda Road","lat":13.03171,"lon":77.62266,"tier":"P2","counts":[11,2,7,1,31,0]},{"id":"2886_17223","name":"Magadi Main Road","lat":12.98959,"lon":77.50613,"tier":"P2","counts":[15,29,13,34,18,22]},{"id":"2916_17251","name":"Bagaluru Main Road","lat":13.1222,"lon":77.63086,"tier":"P2","counts":[13,12,13,18,15,3]},{"id":"2899_17223","name":"Hesaraghatta Main Road","lat":13.04589,"lon":77.50665,"tier":"P2","counts":[15,21,19,11,17,9]},{"id":"2891_17237","name":"Siddavanahalli Krishna Sharma Road","lat":13.01159,"lon":77.56902,"tier":"P2","counts":[6,7,6,2,17,2]},{"id":"2886_17246","name":"Seppings Road","lat":12.98936,"lon":77.60893,"tier":"P2","counts":[19,16,11,16,26,0]},{"id":"2873_17245","name":"1st Main Road","lat":12.93088,"lon":77.60639,"tier":"P2","counts":[22,118,118,23,9,23]},{"id":"2885_17217","name":"Magadi Main Road","lat":12.98555,"lon":77.47962,"tier":"P2","counts":[3,14,2,1,21,3]},{"id":"2896_17237","name":"Padmasri CK Venkata Ramaiah Road","lat":13.03435,"lon":77.56831,"tier":"P2","counts":[9,6,8,5,11,13]},{"id":"2870_17252","name":"14th Main Road","lat":12.91653,"lon":77.63757,"tier":"P2","counts":[20,20,17,15,20,0]},{"id":"2870_17259","name":"Sarjapura Main Road","lat":12.91854,"lon":77.66941,"tier":"P2","counts":[5,2,7,8,17,1]},{"id":"2878_17243","name":"Shanti Nagar TTMC","lat":12.95277,"lon":77.59541,"tier":"P2","counts":[17,2,5,7,17,2]},{"id":"2879_17242","name":"BMTC Junction, KH Road","lat":12.95752,"lon":77.59242,"tier":"P2","counts":[5,10,10,7,14,6]},{"id":"2884_17241","name":"CID Carlton House Junction","lat":12.98067,"lon":77.5883,"tier":"P2","counts":[49,36,43,0,24,2]},{"id":"2882_17250","name":"1st Cross Road","lat":12.97224,"lon":77.6262,"tier":"P2","counts":[36,52,28,28,8,5]},{"id":"2870_17249","name":"Sri Mahasharana Madivala Machideva Flyover","lat":12.91746,"lon":77.62268,"tier":"P2","counts":[14,3,3,15,15,2]},{"id":"2875_17241","name":"T Mariyappa Road","lat":12.93906,"lon":77.58503,"tier":"P2","counts":[27,27,32,14,19,11]},{"id":"2870_17240","name":"Aurobindo Circle, ORR","lat":12.91817,"lon":77.58367,"tier":"P2","counts":[9,3,2,6,15,1]},{"id":"2876_17246","name":"Adugodi Junction","lat":12.94358,"lon":77.60783,"tier":"P2","counts":[0,1,1,2,22,3]},{"id":"2891_17230","name":"Nandini Layout Club Road","lat":13.01093,"lon":77.53572,"tier":"P2","counts":[4,0,1,4,11,10]},{"id":"2853_17261","name":"Hosur Road","lat":12.84052,"lon":77.6768,"tier":"P2","counts":[6,72,92,104,13,9]},{"id":"2867_17267","name":"Chikkabellanduru Road","lat":12.90387,"lon":77.70394,"tier":"P2","counts":[15,35,36,18,18,1]},{"id":"2881_17255","name":"Jeevan Bhima Nagar Main Road","lat":12.96861,"lon":77.6494,"tier":"P2","counts":[27,47,34,13,9,8]},{"id":"2882_17244","name":"Cash Pharmacy, Residency Road","lat":12.97094,"lon":77.59932,"tier":"P2","counts":[55,61,30,27,4,1]},{"id":"2874_17249","name":"60 Feet Road","lat":12.93444,"lon":77.62296,"tier":"P2","counts":[5,15,7,23,19,0]},{"id":"2868_17229","name":"4th Main Road","lat":12.90782,"lon":77.53297,"tier":"P2","counts":[22,11,4,5,21,0]},{"id":"2882_17266","name":"Outer Ring Road","lat":12.96992,"lon":77.70036,"tier":"P2","counts":[0,5,6,22,17,3]},{"id":"2890_17231","name":"Shreepuram Main Road","lat":13.00843,"lon":77.54302,"tier":"P2","counts":[57,77,22,15,8,3]},{"id":"2875_17234","name":"80 Feet Main Road","lat":12.93833,"lon":77.55584,"tier":"P2","counts":[1,12,1,1,20,7]},{"id":"2885_17253","name":"Old Madras Road","lat":12.98394,"lon":77.64059,"tier":"P2","counts":[0,2,2,0,32,5]},{"id":"2882_17252","name":"12th Main Road","lat":12.96996,"lon":77.63704,"tier":"P2","counts":[36,44,26,21,15,2]},{"id":"2883_17229","name":"5th Main Chamrajpet  Junction","lat":12.97616,"lon":77.53176,"tier":"P2","counts":[12,9,19,7,22,0]},{"id":"2882_17255","name":"Sir CV Raman Hospital Road","lat":12.97088,"lon":77.64791,"tier":"P2","counts":[10,60,25,20,9,5]},{"id":"2885_17240","name":"Shivananda Circle","lat":12.9859,"lon":77.58096,"tier":"P2","counts":[23,56,13,3,17,1]},{"id":"2896_17250","name":"5th Cross Road","lat":13.03313,"lon":77.62659,"tier":"P2","counts":[0,21,27,16,23,0]},{"id":"2874_17250","name":"Srinivagilu Main Road","lat":12.9368,"lon":77.6273,"tier":"P2","counts":[5,24,16,37,20,4]},{"id":"2879_17268","name":"Marathahalli Bridge Service Road","lat":12.95658,"lon":77.70859,"tier":"P2","counts":[0,0,36,5,20,4]},{"id":"2860_17231","name":"Konanakunte Main Road","lat":12.87405,"lon":77.54077,"tier":"P2","counts":[5,5,6,1,14,0]},{"id":"2877_17230","name":"Mysore Road","lat":12.94944,"lon":77.53675,"tier":"P2","counts":[3,12,23,7,11,1]},{"id":"2868_17232","name":"Subramanyapura Main Road","lat":12.9069,"lon":77.54608,"tier":"P2","counts":[45,26,11,4,15,1]},{"id":"2886_17274","name":"Whitefield Road","lat":12.98762,"lon":77.73458,"tier":"P2","counts":[7,93,108,145,21,96]},{"id":"2899_17231","name":"HMT Main Road","lat":13.04782,"lon":77.54263,"tier":"P2","counts":[12,12,3,8,10,4]},{"id":"2889_17247","name":"Madhavaraya Mudaliar Road","lat":13.00139,"lon":77.61256,"tier":"P2","counts":[10,42,66,36,7,20]},{"id":"2879_17273","name":"HAL Airport Road","lat":12.95625,"lon":77.73144,"tier":"P2","counts":[31,9,23,1,14,2]},{"id":"2861_17231","name":"Konanakunte Main Road","lat":12.87535,"lon":77.54314,"tier":"P2","counts":[7,3,4,6,11,4]},{"id":"2877_17229","name":"Mysore Road","lat":12.94748,"lon":77.53336,"tier":"P2","counts":[18,20,24,4,13,0]},{"id":"2883_17241","name":"KR Circle","lat":12.97645,"lon":77.58831,"tier":"P2","counts":[41,22,20,20,15,7]},{"id":"2872_17249","name":"Domlur Inner Ring Road","lat":12.92716,"lon":77.62092,"tier":"P2","counts":[0,0,4,11,17,1]},{"id":"2892_17228","name":"3rd Cross Road","lat":13.01511,"lon":77.52961,"tier":"P2","counts":[1,7,0,5,17,0]},{"id":"2889_17227","name":"Dr Rajkumar Puniya Bhoomi Road","lat":13.00195,"lon":77.52569,"tier":"P2","counts":[4,17,6,18,9,10]},{"id":"2874_17245","name":"Hosur-Tavarkere Road Junction","lat":12.93644,"lon":77.60575,"tier":"P2","counts":[27,36,20,1,13,2]},{"id":"2893_17268","name":"MBT Road","lat":13.01951,"lon":77.70869,"tier":"P2","counts":[3,5,0,14,15,1]},{"id":"2896_17274","name":"MBT Road","lat":13.03532,"lon":77.73512,"tier":"P2","counts":[27,12,16,7,16,2]},{"id":"2871_17241","name":"33rd Cross, 11th Main, Jayanagar","lat":12.92236,"lon":77.58587,"tier":"P2","counts":[5,18,6,8,11,12]},{"id":"2904_17228","name":"Forest Region Road","lat":13.06897,"lon":77.53001,"tier":"P2","counts":[0,2,12,26,27,0]},{"id":"2869_17246","name":"16th Main Road, BTM Layout","lat":12.91385,"lon":77.60828,"tier":"P2","counts":[77,53,30,1,27,8]},{"id":"2883_17244","name":"Sri ML Subbaraju Road","lat":12.97601,"lon":77.59974,"tier":"P2","counts":[23,8,8,49,21,4]},{"id":"2876_17265","name":"Outer Ring Road","lat":12.9426,"lon":77.69685,"tier":"P2","counts":[0,0,14,3,16,0]},{"id":"2877_17227","name":"Dr Rajkumar Puniya Bhoomi Road","lat":12.94924,"lon":77.52259,"tier":"P2","counts":[0,24,47,18,20,0]},{"id":"2884_17232","name":"Veeresh Theatre Junction","lat":12.97814,"lon":77.54471,"tier":"P2","counts":[9,14,8,15,14,3]},{"id":"2890_17279","name":"Whitefield Main Road","lat":13.00758,"lon":77.75757,"tier":"P2","counts":[21,20,6,18,16,8]},{"id":"2867_17261","name":"Amrutha College Road","lat":12.90335,"lon":77.67588,"tier":"P2","counts":[22,4,15,5,15,4]},{"id":"2892_17235","name":"CV Raman Road","lat":13.01818,"lon":77.55862,"tier":"P2","counts":[14,21,24,5,13,0]},{"id":"2879_17276","name":"Varthur Main Road","lat":12.9566,"lon":77.74515,"tier":"P2","counts":[1,2,7,10,13,0]},{"id":"2900_17280","name":"MBT Road","lat":13.05338,"lon":77.76189,"tier":"P2","counts":[1,9,1,13,8,3]},{"id":"2907_17232","name":"Hesarghatta Road","lat":13.08179,"lon":77.54822,"tier":"P2","counts":[1,7,3,3,14,2]},{"id":"2899_17242","name":"Kempapura Main Road","lat":13.0494,"lon":77.59302,"tier":"P2","counts":[7,70,45,37,20,4]},{"id":"2870_17231","name":"Ittamadu Road","lat":12.91926,"lon":77.54212,"tier":"P2","counts":[1,6,1,1,11,3]},{"id":"2870_17243","name":"East End Main Road, Jayanagar","lat":12.91688,"lon":77.59623,"tier":"P2","counts":[29,8,100,7,5,34]},{"id":"2886_17216","name":"Magadi Main Road","lat":12.98813,"lon":77.47387,"tier":"P2","counts":[2,9,10,0,12,1]},{"id":"2868_17233","name":"Subramanyapura Main Road","lat":12.90968,"lon":77.55014,"tier":"P2","counts":[33,5,14,24,13,1]},{"id":"2889_17243","name":"2nd Main Road","lat":13.00171,"lon":77.59492,"tier":"P2","counts":[1,100,8,4,17,2]},{"id":"2891_17229","name":"15th Main Road","lat":13.01308,"lon":77.53472,"tier":"P2","counts":[1,4,0,0,13,8]},{"id":"2875_17236","name":"50 Feet Main Road","lat":12.94051,"lon":77.56467,"tier":"P2","counts":[28,0,1,7,21,14]},{"id":"2888_17263","name":"Whitefield Road","lat":12.99963,"lon":77.68655,"tier":"P2","counts":[2,6,15,29,10,6]},{"id":"2884_17242","name":"Vidhan Soudha Metro Station","lat":12.97972,"lon":77.59222,"tier":"P2","counts":[46,54,52,21,2,18]},{"id":"2885_17248","name":"Professor K Venkatachalam Circle","lat":12.98679,"lon":77.61931,"tier":"P2","counts":[10,9,19,3,17,0]},{"id":"2879_17269","name":"HAL Airport Road","lat":12.95618,"lon":77.71403,"tier":"P2","counts":[1,8,31,31,14,0]},{"id":"2880_17243","name":"Blood Bank Circle, KH Road","lat":12.96212,"lon":77.59631,"tier":"P2","counts":[118,121,107,20,5,0]},{"id":"2884_17243","name":"Minsk Square Junction (CTO)","lat":12.98053,"lon":77.59657,"tier":"P2","counts":[78,65,57,5,7,0]},{"id":"2888_17227","name":"2nd Cross Road","lat":12.99918,"lon":77.52517,"tier":"P2","counts":[4,10,17,8,10,6]},{"id":"2871_17254","name":"19th Main Road","lat":12.92031,"lon":77.64507,"tier":"P2","counts":[9,25,7,2,13,2]},{"id":"2885_17276","name":"Mims Gulmohar Road","lat":12.98549,"lon":77.74556,"tier":"P2","counts":[0,0,0,65,40,0]},{"id":"2879_17233","name":"Toll Gate, Mysore Road","lat":12.95751,"lon":77.55208,"tier":"P2","counts":[2,5,0,9,12,2]},{"id":"2861_17232","name":"Konanakunte Main Road","lat":12.87694,"lon":77.54528,"tier":"P2","counts":[14,6,6,6,10,8]},{"id":"2868_17266","name":"Sarjapura Main Road","lat":12.90657,"lon":77.6977,"tier":"P2","counts":[12,15,5,5,15,1]},{"id":"2900_17223","name":"Hesaraghatta Main Road","lat":13.05174,"lon":77.50792,"tier":"P2","counts":[6,2,5,9,12,3]},{"id":"2869_17219","name":"Mysore Road","lat":12.91396,"lon":77.48665,"tier":"P2","counts":[1,0,0,3,12,0]},{"id":"2893_17233","name":"Mumbai Bengaluru Highway","lat":13.0213,"lon":77.5518,"tier":"P2","counts":[3,14,2,9,9,2]},{"id":"2882_17231","name":"Vijayanagar Bus Stand Junction","lat":12.97346,"lon":77.54097,"tier":"P2","counts":[8,2,1,5,18,0]},{"id":"2893_17247","name":"Dr Ambedkar Medical College Road","lat":13.02087,"lon":77.61372,"tier":"P2","counts":[1,5,3,0,20,0]},{"id":"2869_17245","name":"7th Cross Road","lat":12.9136,"lon":77.60556,"tier":"P2","counts":[86,161,50,0,18,0]},{"id":"2865_17237","name":"Bikasipura Main Road","lat":12.89408,"lon":77.56821,"tier":"P2","counts":[4,24,9,10,10,5]},{"id":"2875_17235","name":"50 Feet Main Road","lat":12.94158,"lon":77.5599,"tier":"P2","counts":[2,0,4,1,20,4]},{"id":"2903_17240","name":"4th Main Road","lat":13.06685,"lon":77.58118,"tier":"P2","counts":[0,6,2,5,20,0]},{"id":"2893_17230","name":"Kanteerava Studio Road","lat":13.02034,"lon":77.53739,"tier":"P2","counts":[22,9,14,5,13,0]},{"id":"2869_17261","name":"Sarjapura Main Road","lat":12.91374,"lon":77.67794,"tier":"P2","counts":[26,27,51,26,9,4]},{"id":"2910_17241","name":"3rd A Cross Road","lat":13.09887,"lon":77.58635,"tier":"P2","counts":[2,7,13,4,19,3]},{"id":"2873_17249","name":"7th Cross Road","lat":12.93142,"lon":77.62313,"tier":"P2","counts":[1,1,1,9,12,13]},{"id":"2871_17255","name":"27th Main Road","lat":12.92294,"lon":77.65148,"tier":"P2","counts":[25,18,13,9,11,6]},{"id":"2865_17261","name":"Amrita College Road","lat":12.89523,"lon":77.67582,"tier":"P2","counts":[0,4,5,2,48,0]},{"id":"2880_17228","name":"4th Main Road","lat":12.96086,"lon":77.52825,"tier":"P2","counts":[123,95,69,495,0,0]},{"id":"2881_17244","name":"Cash Pharmacy, Residency Road","lat":12.96767,"lon":77.60052,"tier":"P2","counts":[37,34,27,15,4,4]},{"id":"2873_17247","name":"Madiwala Check Post","lat":12.93196,"lon":77.61379,"tier":"P2","counts":[3,13,15,22,13,0]},{"id":"2889_17271","name":"Kodigehalli Main Road","lat":13.00346,"lon":77.72349,"tier":"P2","counts":[9,8,63,33,3,11]},{"id":"2893_17228","name":"100 Feet Road","lat":13.0211,"lon":77.52855,"tier":"P2","counts":[8,2,1,4,12,0]},{"id":"2857_17242","name":"Bannerghatta Main Road","lat":12.85821,"lon":77.5894,"tier":"P2","counts":[3,7,2,3,10,1]},{"id":"2901_17216","name":"Mumbai Bengaluru Highway","lat":13.05724,"lon":77.4736,"tier":"P2","counts":[0,5,1,3,9,13]},{"id":"2881_17243","name":"RRMR Junction","lat":12.9667,"lon":77.59506,"tier":"P2","counts":[12,16,21,30,9,1]},{"id":"2874_17267","name":"Panathur Main Road","lat":12.93686,"lon":77.70307,"tier":"P2","counts":[8,26,47,14,8,1]},{"id":"2878_17232","name":"Satellite Bus Stand, Mysore Road","lat":12.95476,"lon":77.54454,"tier":"P2","counts":[7,9,4,13,10,0]},{"id":"2886_17226","name":"Dr Rajkumar Puniya Bhoomi Road","lat":12.98761,"lon":77.51964,"tier":"P2","counts":[6,1,10,16,18,4]},{"id":"2877_17238","name":"National College Junction","lat":12.94989,"lon":77.57364,"tier":"P2","counts":[3,6,1,53,20,4]},{"id":"2932_17262","name":"Kempegowda International Airport Road","lat":13.19583,"lon":77.68079,"tier":"P2","counts":[1,2,3,9,10,0]},{"id":"2866_17241","name":"24th Main Road","lat":12.90015,"lon":77.58586,"tier":"P2","counts":[12,17,6,4,12,0]},{"id":"2870_17255","name":"27th Main Road","lat":12.91727,"lon":77.65168,"tier":"P2","counts":[34,17,39,41,8,6]},{"id":"2891_17250","name":"Sri Vinayaka Temple Main Road","lat":13.01284,"lon":77.62633,"tier":"P2","counts":[5,16,4,21,13,0]},{"id":"2876_17227","name":"Nayandahalli Junction","lat":12.94277,"lon":77.52569,"tier":"P2","counts":[0,0,9,0,11,4]},{"id":"2894_17250","name":"80 Feet Road","lat":13.02573,"lon":77.62792,"tier":"P2","counts":[0,1,2,5,8,10]},{"id":"2885_17230","name":"Havanur Circle","lat":12.98611,"lon":77.53722,"tier":"P2","counts":[18,19,7,40,15,15]},{"id":"2892_17280","name":"Whitefield Main Road","lat":13.01533,"lon":77.76192,"tier":"P2","counts":[0,14,2,0,17,0]},{"id":"2881_17231","name":"Sri Sankasta Hara Ganapati Temple Road","lat":12.96454,"lon":77.54167,"tier":"P2","counts":[57,21,12,16,16,0]},{"id":"2880_17229","name":"Attiguppe Circle","lat":12.96195,"lon":77.5338,"tier":"P2","counts":[4,5,3,2,18,0]},{"id":"2868_17263","name":"Sarjapura Main Road","lat":12.90998,"lon":77.68625,"tier":"P2","counts":[26,15,6,2,9,2]},{"id":"2896_17234","name":"MS Ramaiah Road","lat":13.03448,"lon":77.55687,"tier":"P2","counts":[64,25,12,2,12,2]},{"id":"2871_17260","name":"Outer Ring Road","lat":12.92377,"lon":77.67241,"tier":"P2","counts":[32,7,12,7,11,3]},{"id":"2894_17242","name":"RT Nagar Main Road","lat":13.02405,"lon":77.59277,"tier":"P2","counts":[3,150,8,35,0,0]},{"id":"2875_17244","name":"Dairy Circle","lat":12.93794,"lon":77.59937,"tier":"P2","counts":[0,8,8,1,11,8]},{"id":"2905_17242","name":"Sahakar Nagar Road","lat":13.07263,"lon":77.59055,"tier":"P2","counts":[28,27,5,6,14,2]},{"id":"2856_17241","name":"Bannerghatta Main Road","lat":12.85433,"lon":77.58856,"tier":"P2","counts":[1,4,4,6,9,3]},{"id":"2875_17277","name":"Varthur Main Road","lat":12.93908,"lon":77.74739,"tier":"P2","counts":[7,7,29,10,9,3]},{"id":"2915_17251","name":"Bellahali Main Road","lat":13.12122,"lon":77.63145,"tier":"P2","counts":[27,22,56,24,7,0]},{"id":"2932_17267","name":"Airport City Avenue","lat":13.19615,"lon":77.70497,"tier":"P2","counts":[1,1,7,1,12,0]},{"id":"2895_17239","name":"80 Feet Road","lat":13.0276,"lon":77.57638,"tier":"P2","counts":[10,14,20,7,10,0]},{"id":"2885_17236","name":"Rajajinagar Entrance","lat":12.98257,"lon":77.56322,"tier":"P2","counts":[6,6,19,20,11,1]},{"id":"2878_17240","name":"Lalbagh Main Gate Junction","lat":12.95458,"lon":77.58266,"tier":"P2","counts":[30,44,20,16,8,0]},{"id":"2868_17261","name":"Amrutha College Road","lat":12.90792,"lon":77.67589,"tier":"P2","counts":[8,7,10,2,11,2]},{"id":"2887_17239","name":"J Lingaiah Road","lat":12.99425,"lon":77.57781,"tier":"P2","counts":[1,3,2,5,13,0]},{"id":"2891_17232","name":"Hasya Chakravarti Narasimha Raju Road","lat":13.0123,"lon":77.5459,"tier":"P2","counts":[2,1,3,1,8,1]},{"id":"2874_17230","name":"8th Main Road","lat":12.93497,"lon":77.53651,"tier":"P2","counts":[52,94,30,26,9,0]},{"id":"2898_17224","name":"Mumbai Bengaluru Highway","lat":13.04509,"lon":77.50872,"tier":"P2","counts":[5,1,8,11,12,2]},{"id":"2869_17254","name":"19th Main Road","lat":12.91197,"lon":77.64473,"tier":"P2","counts":[30,3,18,33,13,21]},{"id":"2893_17242","name":"RT Nagar Main Road","lat":13.02097,"lon":77.59249,"tier":"P2","counts":[2,167,7,4,3,0]},{"id":"2904_17251","name":"Thanisandra Main Road","lat":13.0712,"lon":77.63364,"tier":"P2","counts":[11,62,9,2,1,1]},{"id":"2883_17224","name":"Kengeri Main Road","lat":12.97426,"lon":77.50915,"tier":"P2","counts":[11,16,15,6,9,2]},{"id":"2888_17219","name":"Andhrahalli Main Road","lat":12.99928,"lon":77.48879,"tier":"P2","counts":[20,0,3,0,19,0]},{"id":"2870_17254","name":"19th Main Road","lat":12.91842,"lon":77.64485,"tier":"P2","counts":[2,1,3,2,10,0]},{"id":"2878_17237","name":"Vanivillas Junction","lat":12.95289,"lon":77.56985,"tier":"P2","counts":[0,2,0,16,13,0]},{"id":"2885_17228","name":"G Narayana Kumar Road","lat":12.98423,"lon":77.52821,"tier":"P2","counts":[25,12,15,10,10,4]},{"id":"2881_17252","name":"Indiranagar Double Road","lat":12.96757,"lon":77.63672,"tier":"P2","counts":[0,2,1,1,15,0]},{"id":"2876_17249","name":"20th Main Road","lat":12.94264,"lon":77.62233,"tier":"P2","counts":[23,23,12,18,8,1]},{"id":"2863_17235","name":"Tippasandra Road","lat":12.887,"lon":77.56131,"tier":"P2","counts":[7,1,5,6,10,3]},{"id":"2868_17239","name":"15th Cross, 35th Main, JP Nagar","lat":12.90721,"lon":77.57795,"tier":"P2","counts":[1,5,1,1,9,0]},{"id":"2865_17257","name":"Haralur Road","lat":12.89442,"lon":77.65722,"tier":"P2","counts":[16,22,13,6,9,2]},{"id":"2898_17247","name":"MBT Road","lat":13.04203,"lon":77.61363,"tier":"P2","counts":[0,9,15,2,9,1]},{"id":"2875_17250","name":"Srinivagilu Main Road","lat":12.93925,"lon":77.62575,"tier":"P2","counts":[0,8,2,32,15,0]},{"id":"2879_17236","name":"5th Main Chamrajpet  Junction","lat":12.95788,"lon":77.56408,"tier":"P2","counts":[0,0,0,1,10,3]},{"id":"2881_17269","name":"2nd Cross Road","lat":12.96728,"lon":77.71427,"tier":"P2","counts":[0,14,11,5,12,0]},{"id":"2848_17264","name":"Hosur Road","lat":12.81851,"lon":77.68916,"tier":"P2","counts":[9,13,60,8,3,8]},{"id":"2892_17232","name":"MEC Road","lat":13.01667,"lon":77.54553,"tier":"P2","counts":[14,5,10,2,9,0]},{"id":"2883_17269","name":"ITPL Main Road","lat":12.97554,"lon":77.71112,"tier":"P2","counts":[0,35,96,14,4,0]},{"id":"2866_17245","name":"Devara Chikkanahalli Main Road","lat":12.89784,"lon":77.60638,"tier":"P2","counts":[0,0,3,5,8,0]},{"id":"2868_17252","name":"Hosapalya Main Road","lat":12.90681,"lon":77.6362,"tier":"P2","counts":[10,3,14,16,8,1]},{"id":"2882_17236","name":"Binny Mill Main Road","lat":12.97091,"lon":77.5657,"tier":"P2","counts":[0,7,2,19,10,1]},{"id":"2910_17240","name":"1st A Main Road","lat":13.09733,"lon":77.58408,"tier":"P2","counts":[2,2,0,0,18,4]},{"id":"2890_17235","name":"16th Cross Road","lat":13.00654,"lon":77.55823,"tier":"P2","counts":[1,3,7,4,9,0]},{"id":"2889_17228","name":"Dr Rajkumar Puniya Bhoomi Road","lat":13.00369,"lon":77.52669,"tier":"P2","counts":[8,6,8,18,5,1]},{"id":"2872_17252","name":"Sarjapur Marathahalli Road","lat":12.92521,"lon":77.63475,"tier":"P2","counts":[15,12,1,2,9,1]},{"id":"2877_17245","name":"Anepalya Junction","lat":12.94934,"lon":77.60583,"tier":"P2","counts":[8,0,8,4,9,1]},{"id":"2866_17268","name":"Sarjapura Main Road","lat":12.90097,"lon":77.70946,"tier":"P2","counts":[0,0,2,5,10,2]},{"id":"2875_17251","name":"Ejipura Main Road","lat":12.93928,"lon":77.63224,"tier":"P2","counts":[2,4,2,2,8,0]},{"id":"2868_17231","name":"Dr Vishnuvardhan Main Road","lat":12.90637,"lon":77.5417,"tier":"P2","counts":[2,7,1,2,10,0]},{"id":"2857_17241","name":"Bannerghatta Main Road","lat":12.85751,"lon":77.58896,"tier":"P2","counts":[2,2,1,10,10,0]},{"id":"2878_17249","name":"4th Main Road","lat":12.95423,"lon":77.6226,"tier":"P2","counts":[3,1,3,0,9,2]},{"id":"2893_17253","name":"5th Main Road","lat":13.02157,"lon":77.63954,"tier":"P2","counts":[23,12,14,36,6,4]},{"id":"2889_17268","name":"Basavanapura Road","lat":13.00447,"lon":77.70997,"tier":"P2","counts":[0,4,4,5,9,2]},{"id":"2888_17249","name":"Banaswadi Main Road","lat":12.99883,"lon":77.62421,"tier":"P2","counts":[0,0,12,83,16,0]},{"id":"2868_17265","name":"Sarjapura Main Road","lat":12.90706,"lon":77.69601,"tier":"P2","counts":[49,28,15,12,9,4]},{"id":"2894_17232","name":"Mumbai Bengaluru Highway","lat":13.02585,"lon":77.54577,"tier":"P2","counts":[7,21,10,16,6,1]},{"id":"2898_17237","name":"1st Main Road","lat":13.04355,"lon":77.57058,"tier":"P2","counts":[0,1,1,3,16,0]},{"id":"2877_17240","name":"Lalbagh West Gate","lat":12.94837,"lon":77.58021,"tier":"P2","counts":[34,28,1,0,10,39]},{"id":"2860_17254","name":"Manipal County Road","lat":12.87381,"lon":77.6446,"tier":"P2","counts":[1,5,0,2,8,0]},{"id":"2856_17258","name":"Hosur Road","lat":12.8554,"lon":77.66425,"tier":"P2","counts":[1,31,71,0,5,0]},{"id":"2862_17278","name":"Sarjapura Main Road","lat":12.88327,"lon":77.75231,"tier":"P2","counts":[3,2,7,0,8,0]},{"id":"2859_17256","name":"Hosur Road","lat":12.8697,"lon":77.65364,"tier":"P2","counts":[0,3,3,54,11,7]},{"id":"2900_17227","name":"Chikka Banavara RS Road","lat":13.05049,"lon":77.52553,"tier":"P2","counts":[10,11,147,38,0,0]},{"id":"2870_17246","name":"16th Main Road, BTM Layout","lat":12.9164,"lon":77.61015,"tier":"P2","counts":[0,5,1,0,10,4]},{"id":"2886_17235","name":"Suguna Hospital, Dr. Rajkumar Road","lat":12.98851,"lon":77.5593,"tier":"P3","counts":[12,26,11,12,7,5]},{"id":"2932_17268","name":"Terminal 1 Departure Road","lat":13.19704,"lon":77.70806,"tier":"P3","counts":[0,1,3,3,9,0]},{"id":"2870_17247","name":"29th Main Road, BTM Layout","lat":12.91523,"lon":77.61581,"tier":"P3","counts":[1,0,0,0,23,10]},{"id":"2897_17249","name":"14th Main Road","lat":13.03769,"lon":77.62337,"tier":"P3","counts":[3,15,7,1,8,3]},{"id":"2895_17226","name":"TVS Cross Road","lat":13.02784,"lon":77.51847,"tier":"P3","counts":[0,1,15,0,10,0]},{"id":"2885_17241","name":"Basaweshwara Circle (LH) Junction","lat":12.98484,"lon":77.58819,"tier":"P3","counts":[15,19,15,6,3,3]},{"id":"2879_17275","name":"HAL Airport Road","lat":12.95706,"lon":77.73921,"tier":"P3","counts":[0,0,2,3,10,0]},{"id":"2876_17248","name":"Srinivagilu Main Road","lat":12.94549,"lon":77.61903,"tier":"P3","counts":[0,1,3,6,10,0]},{"id":"2881_17267","name":"Outer Ring Road","lat":12.96705,"lon":77.70197,"tier":"P3","counts":[3,6,11,17,7,4]},{"id":"2877_17242","name":"Siddapura Junction","lat":12.94734,"lon":77.59092,"tier":"P3","counts":[11,28,18,6,7,5]},{"id":"2883_17254","name":"Sir CV Raman Hospital Road","lat":12.97491,"lon":77.64508,"tier":"P3","counts":[3,6,2,13,8,0]},{"id":"2920_17248","name":"Hosahalli Main Road","lat":13.14369,"lon":77.61783,"tier":"P3","counts":[13,6,15,47,8,2]},{"id":"2911_17241","name":"3rd A Cross Road","lat":13.0998,"lon":77.58865,"tier":"P3","counts":[14,13,45,31,3,1]},{"id":"2869_17255","name":"17th Cross Road","lat":12.91204,"lon":77.65124,"tier":"P3","counts":[19,25,10,23,4,1]},{"id":"2887_17256","name":"Railway Line Road","lat":12.99195,"lon":77.65343,"tier":"P3","counts":[9,39,59,0,0,0]},{"id":"2883_17231","name":"Vijayanagar Bus Stand Junction","lat":12.97381,"lon":77.54116,"tier":"P3","counts":[12,25,9,14,6,1]},{"id":"2907_17252","name":"Munninarasimha Road","lat":13.08368,"lon":77.63698,"tier":"P3","counts":[27,21,20,2,2,2]},{"id":"2893_17252","name":"CMR Road","lat":13.02244,"lon":77.63785,"tier":"P3","counts":[26,24,39,25,5,2]},{"id":"2894_17257","name":"Horamavu Main Road","lat":13.0243,"lon":77.6589,"tier":"P3","counts":[1,1,2,1,9,0]},{"id":"2896_17228","name":"6th Main Road","lat":13.0341,"lon":77.53034,"tier":"P3","counts":[1,0,2,1,9,0]},{"id":"2860_17257","name":"Hosa Road","lat":12.87051,"lon":77.65807,"tier":"P3","counts":[0,13,12,25,9,0]},{"id":"2874_17240","name":"Syndicate Bank Junction","lat":12.93648,"lon":77.58409,"tier":"P3","counts":[24,22,23,23,11,2]},{"id":"2900_17221","name":"Mumbai Bengaluru Highway","lat":13.05034,"lon":77.49467,"tier":"P3","counts":[15,4,9,0,8,0]},{"id":"2903_17229","name":"Forest Region Road","lat":13.06671,"lon":77.53205,"tier":"P3","counts":[0,0,2,3,13,0]},{"id":"2873_17262","name":"Outer Ring Road","lat":12.92944,"lon":77.68147,"tier":"P3","counts":[9,1,37,9,3,4]},{"id":"2882_17251","name":"Jogupalaya Main Road","lat":12.97109,"lon":77.63073,"tier":"P3","counts":[2,7,4,8,5,51]},{"id":"2882_17241","name":"Police Corner","lat":12.97011,"lon":77.5854,"tier":"P3","counts":[19,6,18,6,6,0]},{"id":"2887_17237","name":"South End Road","lat":12.99313,"lon":77.56851,"tier":"P3","counts":[10,16,15,13,4,5]},{"id":"2867_17238","name":"JP Nagar Metro, ORR","lat":12.90412,"lon":77.57333,"tier":"P3","counts":[1,0,1,1,10,3]},{"id":"2915_17246","name":"Bellary Road","lat":13.12044,"lon":77.60994,"tier":"P3","counts":[52,2,5,1,1,2]},{"id":"2893_17257","name":"Horamavu Main Road","lat":13.0215,"lon":77.65742,"tier":"P3","counts":[10,7,16,2,8,0]},{"id":"2888_17245","name":"Harris Road","lat":12.99779,"lon":77.60556,"tier":"P3","counts":[0,14,9,2,8,0]},{"id":"2872_17243","name":"Sagar Hospital, Jayanagar","lat":12.92702,"lon":77.59696,"tier":"P3","counts":[3,8,4,31,5,2]},{"id":"2885_17226","name":"Dr Rajkumar Puniya Bhoomi Road","lat":12.98681,"lon":77.51941,"tier":"P3","counts":[15,24,60,29,17,0]},{"id":"2896_17236","name":"6th Main Road","lat":13.03258,"lon":77.56397,"tier":"P3","counts":[17,0,0,0,11,0]},{"id":"2892_17268","name":"Basavanapura Road","lat":13.0163,"lon":77.70928,"tier":"P3","counts":[0,0,3,0,11,0]},{"id":"2884_17272","name":"ITPL Main Road","lat":12.98045,"lon":77.72711,"tier":"P3","counts":[5,0,0,0,17,0]},{"id":"2884_17256","name":"Dr APJ Abdul Kalam Marg","lat":12.97965,"lon":77.65281,"tier":"P3","counts":[0,8,33,36,2,0]},{"id":"2849_17263","name":"Hosur Road","lat":12.82234,"lon":77.68637,"tier":"P3","counts":[1,20,5,16,2,0]},{"id":"2896_17238","name":"Dr Rajgopal Road","lat":13.03593,"lon":77.57494,"tier":"P3","counts":[3,0,3,48,15,0]},{"id":"2896_17229","name":"Watch Factory Road","lat":13.03328,"lon":77.53396,"tier":"P3","counts":[5,10,21,5,4,3]},{"id":"2861_17260","name":"Amrutha College Road","lat":12.87596,"lon":77.67125,"tier":"P3","counts":[16,7,23,7,6,0]},{"id":"2872_17260","name":"Outer Ring Road","lat":12.92433,"lon":77.67348,"tier":"P3","counts":[3,5,26,9,6,9]},{"id":"2882_17237","name":"Shanthala Junction","lat":12.97117,"lon":77.56843,"tier":"P3","counts":[2,10,11,6,6,9]},{"id":"2910_17243","name":"BB Road","lat":13.09883,"lon":77.59729,"tier":"P3","counts":[5,18,14,11,6,3]},{"id":"2884_17271","name":"Road Number 7th","lat":12.98051,"lon":77.72121,"tier":"P3","counts":[4,0,0,2,8,0]},{"id":"2881_17245","name":"Cash Pharmacy, Residency Road","lat":12.96686,"lon":77.60355,"tier":"P3","counts":[5,8,27,3,1,1]},{"id":"2883_17253","name":"9th A Main Road","lat":12.97758,"lon":77.63942,"tier":"P3","counts":[10,38,21,3,12,0]},{"id":"2892_17242","name":"RT Nagar Main Road","lat":13.01703,"lon":77.59165,"tier":"P3","counts":[0,58,4,1,1,2]},{"id":"2904_17250","name":"80 Feet Road","lat":13.06868,"lon":77.62721,"tier":"P3","counts":[6,30,1,16,1,12]},{"id":"2859_17230","name":"Konanakunte Main Road","lat":12.86856,"lon":77.53633,"tier":"P3","counts":[10,4,10,2,3,10]},{"id":"2910_17239","name":"16th B Cross Road","lat":13.09892,"lon":77.57724,"tier":"P3","counts":[34,19,28,0,0,2]},{"id":"2900_17219","name":"Mumbai Bengaluru Highway","lat":13.05227,"lon":77.48749,"tier":"P3","counts":[2,9,8,12,1,18]},{"id":"2898_17242","name":"Hebbal Flyover","lat":13.0429,"lon":77.59033,"tier":"P3","counts":[2,12,26,8,2,2]},{"id":"2882_17277","name":"Whitefield Main Road","lat":12.96985,"lon":77.74996,"tier":"P3","counts":[9,12,5,3,7,0]},{"id":"2891_17231","name":"8th Main Road","lat":13.01044,"lon":77.54342,"tier":"P3","counts":[2,22,10,2,4,3]},{"id":"2901_17229","name":"Abbigere Main Road","lat":13.05512,"lon":77.53456,"tier":"P3","counts":[1,8,11,23,7,0]},{"id":"2893_17241","name":"Bellary Road","lat":13.02173,"lon":77.58454,"tier":"P3","counts":[6,16,4,8,4,2]},{"id":"2880_17273","name":"Nallurahalli Road","lat":12.9618,"lon":77.73276,"tier":"P3","counts":[0,0,27,5,8,0]},{"id":"2891_17228","name":"Dr Rajkumar Puniya Bhoomi Road","lat":13.0116,"lon":77.52848,"tier":"P3","counts":[9,4,3,5,5,0]},{"id":"2878_17253","name":"Domlur Inner Ring Road","lat":12.95334,"lon":77.64077,"tier":"P3","counts":[7,5,17,7,7,0]},{"id":"2900_17220","name":"Mumbai Bengaluru Highway","lat":13.0512,"lon":77.49349,"tier":"P3","counts":[13,5,8,5,5,0]},{"id":"2877_17237","name":"Vanivillas Junction","lat":12.94722,"lon":77.56883,"tier":"P3","counts":[5,6,1,17,4,13]},{"id":"2881_17266","name":"Outer Ring Road","lat":12.96849,"lon":77.70111,"tier":"P3","counts":[0,5,21,10,3,2]},{"id":"2882_17224","name":"6th Main Road","lat":12.97137,"lon":77.51131,"tier":"P3","counts":[4,6,8,7,6,6]},{"id":"2874_17229","name":"Kerekodi Main Road","lat":12.93688,"lon":77.53249,"tier":"P3","counts":[1,0,1,0,9,0]},{"id":"2887_17248","name":"Wheeler Road","lat":12.99565,"lon":77.61665,"tier":"P3","counts":[3,11,7,11,5,1]},{"id":"2886_17269","name":"Hoodi Main Road","lat":12.9892,"lon":77.71217,"tier":"P3","counts":[2,6,11,20,3,7]},{"id":"2880_17277","name":"Whitefield Main Road","lat":12.9615,"lon":77.74775,"tier":"P3","counts":[4,7,8,4,6,1]},{"id":"2884_17224","name":"Kengeri Main Road","lat":12.97979,"lon":77.51077,"tier":"P3","counts":[2,14,7,4,2,0]},{"id":"2894_17271","name":"MBT Road","lat":13.02638,"lon":77.72059,"tier":"P3","counts":[2,18,13,6,4,0]},{"id":"2887_17255","name":"Railway Line Road","lat":12.99222,"lon":77.65138,"tier":"P3","counts":[3,24,1,0,9,0]},{"id":"2853_17256","name":"Neeladri Road","lat":12.84031,"lon":77.65237,"tier":"P3","counts":[1,4,0,1,9,0]},{"id":"2878_17236","name":"5th Main Chamrajpet  Junction","lat":12.95499,"lon":77.56591,"tier":"P3","counts":[0,0,0,5,13,0]},{"id":"2878_17226","name":"Magadi Road","lat":12.95267,"lon":77.52025,"tier":"P3","counts":[2,4,21,2,0,0]},{"id":"2871_17248","name":"Madiwala Traffic PS Junction","lat":12.92253,"lon":77.6194,"tier":"P3","counts":[2,1,13,17,4,2]},{"id":"2887_17257","name":"Old Madras Road","lat":12.99254,"lon":77.65969,"tier":"P3","counts":[0,4,25,16,6,0]},{"id":"2881_17246","name":"Castle Street","lat":12.96713,"lon":77.60871,"tier":"P3","counts":[3,11,18,10,0,0]},{"id":"2861_17248","name":"Westend Avenue","lat":12.876,"lon":77.61666,"tier":"P3","counts":[12,11,6,15,1,0]},{"id":"2915_17247","name":"Bagaluru Main Road","lat":13.12172,"lon":77.61355,"tier":"P3","counts":[34,1,3,1,0,9]},{"id":"2860_17230","name":"Konanakunte Main Road","lat":12.87148,"lon":77.53874,"tier":"P3","counts":[9,15,9,4,1,0]},{"id":"2862_17253","name":"12th Main Road","lat":12.88116,"lon":77.64124,"tier":"P3","counts":[1,7,10,13,4,1]},{"id":"2860_17243","name":"Bannerghatta Main Road","lat":12.87297,"lon":77.59432,"tier":"P3","counts":[1,4,23,2,9,0]},{"id":"2887_17235","name":"Prakash Nagar Junction","lat":12.99267,"lon":77.55836,"tier":"P3","counts":[87,0,34,0,0,1]},{"id":"2867_17231","name":"Dr Vishnuvardhan Main Road","lat":12.90577,"lon":77.54256,"tier":"P3","counts":[11,11,8,4,6,2]},{"id":"2884_17230","name":"Puttamma Choultry, Nagarbhavi","lat":12.9799,"lon":77.53778,"tier":"P3","counts":[5,12,15,3,1,1]},{"id":"2897_17236","name":"5th Main Road","lat":13.03843,"lon":77.56611,"tier":"P3","counts":[1,10,12,8,4,2]},{"id":"2875_17220","name":"Kengeri Main Road","lat":12.93933,"lon":77.49301,"tier":"P3","counts":[0,6,30,4,4,1]},{"id":"2874_17266","name":"3rd Main Road","lat":12.93696,"lon":77.69762,"tier":"P3","counts":[2,24,7,12,2,0]},{"id":"2858_17228","name":"Konanakunte Main Road","lat":12.86222,"lon":77.53007,"tier":"P3","counts":[29,4,7,2,1,0]},{"id":"2870_17235","name":"Devegowda Petrol Bunk","lat":12.91851,"lon":77.55977,"tier":"P3","counts":[0,0,1,2,12,0]},{"id":"2894_17243","name":"10th Main Road","lat":13.02437,"lon":77.59404,"tier":"P3","counts":[0,38,3,2,2,0]},{"id":"2869_17239","name":"Sarakki Main Road","lat":12.91093,"lon":77.57805,"tier":"P3","counts":[4,24,6,19,5,0]},{"id":"2889_17263","name":"Old Madras Road","lat":13.00487,"lon":77.68434,"tier":"P3","counts":[3,10,24,6,0,0]},{"id":"2884_17278","name":"Whitefield Main Road","lat":12.97955,"lon":77.75141,"tier":"P3","counts":[3,4,7,13,3,2]},{"id":"2890_17247","name":"Tannery Road","lat":13.00745,"lon":77.61279,"tier":"P3","counts":[7,8,11,3,6,3]},{"id":"2893_17240","name":"Bellary Road","lat":13.02092,"lon":77.58427,"tier":"P3","counts":[12,7,3,2,7,0]},{"id":"2884_17268","name":"ITPL Main Road","lat":12.9803,"lon":77.70925,"tier":"P3","counts":[3,4,18,28,0,0]},{"id":"2880_17225","name":"Nagarabhavi Main Road","lat":12.9605,"lon":77.51309,"tier":"P3","counts":[0,6,11,4,1,2]},{"id":"2876_17239","name":"RV Teachers College","lat":12.9445,"lon":77.57995,"tier":"P3","counts":[5,20,2,1,5,3]},{"id":"2850_17262","name":"Hosur Road","lat":12.82715,"lon":77.68212,"tier":"P3","counts":[0,15,2,2,6,0]},{"id":"2893_17243","name":"3rd Main Road","lat":13.02,"lon":77.59533,"tier":"P3","counts":[0,3,0,0,9,0]},{"id":"2915_17248","name":"Bagaluru Main Road","lat":13.12124,"lon":77.61788,"tier":"P3","counts":[45,3,2,0,0,0]},{"id":"2867_17243","name":"Rose Garden Road","lat":12.90194,"lon":77.59414,"tier":"P3","counts":[9,11,6,5,4,2]},{"id":"2901_17214","name":"Mumbai Bengaluru Highway","lat":13.05852,"lon":77.46636,"tier":"P3","counts":[13,7,5,2,3,4]},{"id":"2868_17241","name":"15th Cross, 24th Main, JP Nagar","lat":12.90702,"lon":77.58763,"tier":"P3","counts":[1,6,9,7,5,0]},{"id":"2879_17265","name":"HAL Airport Road","lat":12.95645,"lon":77.69461,"tier":"P3","counts":[3,2,10,5,4,3]},{"id":"2899_17222","name":"Mumbai Bengaluru Highway","lat":13.04713,"lon":77.501,"tier":"P3","counts":[50,5,61,0,0,0]},{"id":"2886_17243","name":"Millers Tank Bund Road","lat":12.98946,"lon":77.59449,"tier":"P3","counts":[4,4,9,8,6,1]},{"id":"2881_17233","name":"3rd Main Road","lat":12.96608,"lon":77.54875,"tier":"P3","counts":[0,4,10,11,7,1]},{"id":"2894_17240","name":"1st Main Road","lat":13.02496,"lon":77.58184,"tier":"P3","counts":[2,4,5,8,5,3]},{"id":"2863_17243","name":"BDA 80 Feet Road","lat":12.8841,"lon":77.59709,"tier":"P3","counts":[1,4,16,29,7,0]},{"id":"2866_17238","name":"Konanakunte Main Road","lat":12.89793,"lon":77.57169,"tier":"P3","counts":[4,4,7,3,7,3]},{"id":"2888_17243","name":"1st Main Road","lat":12.99953,"lon":77.59694,"tier":"P3","counts":[0,51,1,0,4,0]},{"id":"2880_17266","name":"Outer Ring Road","lat":12.96116,"lon":77.70134,"tier":"P3","counts":[6,13,6,7,3,0]},{"id":"2889_17251","name":"Banaswadi Main Road","lat":13.002,"lon":77.63255,"tier":"P3","counts":[2,2,41,2,4,1]},{"id":"2872_17259","name":"2nd Main Road","lat":12.92617,"lon":77.66969,"tier":"P3","counts":[0,0,5,0,18,0]},{"id":"2885_17237","name":"5th Main Road","lat":12.98452,"lon":77.56808,"tier":"P3","counts":[10,5,3,4,6,1]},{"id":"2915_17249","name":"Bagaluru Main Road","lat":13.12169,"lon":77.62271,"tier":"P3","counts":[30,2,9,0,0,0]},{"id":"2874_17225","name":"Mysore Road","lat":12.9359,"lon":77.51503,"tier":"P3","counts":[5,4,10,5,3,2]},{"id":"2871_17239","name":"KR Road Junction, Near JSS","lat":12.92349,"lon":77.57801,"tier":"P3","counts":[7,4,3,6,2,1]},{"id":"2875_17249","name":"20th Main Road","lat":12.9415,"lon":77.62137,"tier":"P3","counts":[2,20,0,25,6,0]},{"id":"2883_17266","name":"Outer Ring Road","lat":12.97538,"lon":77.69757,"tier":"P3","counts":[0,13,8,2,1,1]},{"id":"2852_17262","name":"Hosur Road","lat":12.83564,"lon":77.67917,"tier":"P3","counts":[3,6,6,6,5,0]},{"id":"2889_17249","name":"Cline Road","lat":13.00086,"lon":77.62184,"tier":"P3","counts":[0,0,0,6,14,0]},{"id":"2900_17238","name":"Kodigehalli Road","lat":13.05156,"lon":77.57491,"tier":"P3","counts":[1,4,16,2,5,0]},{"id":"2885_17232","name":"NPS, Vijayanagar","lat":12.98472,"lon":77.54652,"tier":"P3","counts":[3,23,13,1,0,0]},{"id":"2897_17250","name":"5th Cross Road","lat":13.03742,"lon":77.62581,"tier":"P3","counts":[2,10,11,4,2,0]},{"id":"2891_17265","name":"MBT Road","lat":13.00961,"lon":77.69679,"tier":"P3","counts":[0,3,5,13,6,0]},{"id":"2879_17253","name":"Domlur Inner Ring Road","lat":12.95712,"lon":77.64135,"tier":"P3","counts":[1,9,9,5,5,0]},{"id":"2896_17225","name":"1st Main Road","lat":13.03556,"lon":77.51414,"tier":"P3","counts":[7,6,29,0,0,0]},{"id":"2899_17232","name":"HMT Main Road","lat":13.04905,"lon":77.54765,"tier":"P3","counts":[2,11,0,13,2,0]},{"id":"2883_17225","name":"4th A Cross Road","lat":12.97534,"lon":77.51355,"tier":"P3","counts":[7,4,4,6,3,0]},{"id":"2901_17255","name":"Byrathi Main Road","lat":13.05712,"lon":77.65019,"tier":"P3","counts":[10,14,0,3,1,1]},{"id":"2898_17234","name":"Outer Ring Road","lat":13.04296,"lon":77.55468,"tier":"P3","counts":[1,9,2,9,2,7]},{"id":"2880_17223","name":"Mallathahalli Road","lat":12.96084,"lon":77.50574,"tier":"P3","counts":[6,6,3,1,6,1]},{"id":"2886_17268","name":"Hoodi Main Road","lat":12.98772,"lon":77.70931,"tier":"P3","counts":[0,4,10,4,6,11]},{"id":"2845_17266","name":"Hosur Road","lat":12.80612,"lon":77.69922,"tier":"P3","counts":[7,12,0,2,6,0]},{"id":"2878_17230","name":"Gali Anjaneya Temple","lat":12.95214,"lon":77.53714,"tier":"P3","counts":[3,6,5,1,3,0]},{"id":"2848_17263","name":"Hosur Road","lat":12.81998,"lon":77.68767,"tier":"P3","counts":[3,11,5,19,0,0]},{"id":"2866_17251","name":"Hosur Road","lat":12.89972,"lon":77.63372,"tier":"P3","counts":[8,11,0,4,4,0]},{"id":"2885_17242","name":"LRDE Junction","lat":12.98582,"lon":77.58966,"tier":"P3","counts":[6,5,3,2,2,3]},{"id":"2889_17258","name":"2nd Main Road","lat":13.00344,"lon":77.66265,"tier":"P3","counts":[32,19,5,1,0,1]},{"id":"2884_17255","name":"Dr APJ Abdul Kalam Marg","lat":12.98041,"lon":77.65186,"tier":"P3","counts":[0,3,15,5,6,0]},{"id":"2889_17269","name":"Devasandra Main Road","lat":13.00435,"lon":77.71206,"tier":"P3","counts":[1,3,7,4,6,1]},{"id":"2902_17255","name":"Hennur Main Road","lat":13.06073,"lon":77.65199,"tier":"P3","counts":[15,2,0,2,0,15]},{"id":"2887_17267","name":"Whitefield Road","lat":12.99344,"lon":77.7041,"tier":"P3","counts":[1,1,9,0,1,24]},{"id":"2895_17236","name":"6th Main Road","lat":13.02998,"lon":77.56292,"tier":"P3","counts":[12,8,4,0,5,0]},{"id":"2876_17245","name":"Mico Bande","lat":12.94392,"lon":77.6029,"tier":"P3","counts":[6,7,1,4,5,0]},{"id":"2873_17242","name":"10th Cross Road","lat":12.93099,"lon":77.59266,"tier":"P3","counts":[22,15,2,0,0,22]},{"id":"2894_17251","name":"80 Feet Road","lat":13.02607,"lon":77.63106,"tier":"P3","counts":[1,2,9,4,6,2]},{"id":"2899_17227","name":"SM Road","lat":13.04616,"lon":77.52251,"tier":"P3","counts":[18,3,0,0,5,3]},{"id":"2914_17239","name":"Doddaballapur Main Road","lat":13.11644,"lon":77.57821,"tier":"P3","counts":[0,18,7,2,6,0]},{"id":"2889_17248","name":"Pottery Road","lat":13.00225,"lon":77.61762,"tier":"P3","counts":[2,3,9,9,7,0]},{"id":"2868_17240","name":"15th Cross, 33rd Main, JP Nagar","lat":12.90636,"lon":77.58178,"tier":"P3","counts":[3,4,1,9,6,1]},{"id":"2893_17248","name":"Vinoba Nagar Main Road","lat":13.01967,"lon":77.61893,"tier":"P3","counts":[1,3,2,2,6,2]},{"id":"2862_17233","name":"Anjanapura Main Road","lat":12.88302,"lon":77.54925,"tier":"P3","counts":[9,4,0,2,5,4]},{"id":"2900_17243","name":"Bellary Road","lat":13.05105,"lon":77.5936,"tier":"P3","counts":[1,16,0,3,5,4]},{"id":"2879_17258","name":"Old Airport Road","lat":12.95901,"lon":77.66264,"tier":"P3","counts":[1,1,8,5,4,0]},{"id":"2894_17229","name":"Dr Rajkumar Puniya Bhoomi Road","lat":13.02452,"lon":77.53371,"tier":"P3","counts":[1,7,5,8,2,0]},{"id":"2902_17213","name":"Mumbai Bengaluru Highway","lat":13.06075,"lon":77.46125,"tier":"P3","counts":[1,15,10,0,0,9]},{"id":"2892_17220","name":"Thigalarapalya Main Road","lat":13.01416,"lon":77.49221,"tier":"P3","counts":[21,33,0,0,0,0]},{"id":"2878_17245","name":"Anepalya Junction","lat":12.95184,"lon":77.60552,"tier":"P3","counts":[3,0,8,9,1,0]},{"id":"2883_17243","name":"Siddalingaiah Circle","lat":12.97467,"lon":77.59668,"tier":"P3","counts":[16,12,0,1,0,1]},{"id":"2924_17250","name":"Bengaluru Bellary Road","lat":13.16134,"lon":77.62661,"tier":"P3","counts":[8,0,2,12,1,0]},{"id":"2901_17243","name":"Dasarahalli Main Road","lat":13.05622,"lon":77.59389,"tier":"P3","counts":[5,15,5,6,2,1]},{"id":"2902_17256","name":"Doddagubbi Road","lat":13.06045,"lon":77.65208,"tier":"P3","counts":[0,2,2,3,0,44]},{"id":"2889_17240","name":"Sankey Road","lat":13.0041,"lon":77.5826,"tier":"P3","counts":[2,2,2,1,6,3]},{"id":"2916_17246","name":"Bellary Road","lat":13.12247,"lon":77.61079,"tier":"P3","counts":[11,3,4,0,7,0]},{"id":"2885_17262","name":"Kaggadaspura Main Road","lat":12.98355,"lon":77.67988,"tier":"P3","counts":[1,2,11,8,1,2]},{"id":"2879_17271","name":"HAL Airport Road","lat":12.95574,"lon":77.72098,"tier":"P3","counts":[2,2,8,0,5,1]},{"id":"2868_17254","name":"19th Main Road","lat":12.90926,"lon":77.64452,"tier":"P3","counts":[60,0,0,4,0,0]},{"id":"2893_17231","name":"Shankara Nagar Main Road","lat":13.01905,"lon":77.53986,"tier":"P3","counts":[11,2,3,2,3,0]},{"id":"2864_17235","name":"Konanakunte Main Road","lat":12.88834,"lon":77.5618,"tier":"P3","counts":[1,3,7,5,5,4]},{"id":"2883_17230","name":"Vijayanagar Bus Stand Junction","lat":12.97405,"lon":77.53813,"tier":"P3","counts":[1,13,0,5,3,0]},{"id":"2871_17274","name":"Varthur Main Road","lat":12.92105,"lon":77.73634,"tier":"P3","counts":[2,1,4,3,7,0]},{"id":"2877_17264","name":"Yemalur Road","lat":12.94992,"lon":77.68972,"tier":"P3","counts":[1,1,5,21,0,0]},{"id":"2888_17262","name":"Outer Ring Road","lat":12.99986,"lon":77.68197,"tier":"P3","counts":[0,3,9,1,4,0]},{"id":"2899_17233","name":"Jalahalli Main Road","lat":13.04631,"lon":77.54943,"tier":"P3","counts":[15,1,2,5,0,1]},{"id":"2911_17239","name":"Yelahanka New Town Main Road","lat":13.09956,"lon":77.5786,"tier":"P3","counts":[5,1,8,1,3,0]},{"id":"2876_17240","name":"RV Teachers College","lat":12.94468,"lon":77.58002,"tier":"P3","counts":[4,12,1,0,6,0]},{"id":"2869_17244","name":"GD Mara Junction","lat":12.91162,"lon":77.60003,"tier":"P3","counts":[2,6,6,3,2,1]},{"id":"2887_17279","name":"Whitefield Main Road","lat":12.9943,"lon":77.75772,"tier":"P3","counts":[5,3,5,2,2,0]},{"id":"2894_17253","name":"5th Main Road","lat":13.02418,"lon":77.63981,"tier":"P3","counts":[3,3,4,3,4,0]},{"id":"2895_17240","name":"60 Feet Road","lat":13.02928,"lon":77.58092,"tier":"P3","counts":[0,6,1,0,0,36]},{"id":"2886_17257","name":"Old Madras Road","lat":12.99113,"lon":77.65713,"tier":"P3","counts":[5,2,5,2,2,0]},{"id":"2894_17226","name":"Rajgopal Nagar Main Road","lat":13.02533,"lon":77.52019,"tier":"P3","counts":[0,0,5,14,4,6]},{"id":"2903_17255","name":"Hennur Main Road","lat":13.06401,"lon":77.65098,"tier":"P3","counts":[3,4,0,5,0,20]},{"id":"2892_17231","name":"Shankara Nagar Main Road","lat":13.01598,"lon":77.54365,"tier":"P3","counts":[2,2,3,3,6,1]},{"id":"2863_17236","name":"Amruth Nagar Main Road","lat":12.88795,"lon":77.56423,"tier":"P3","counts":[6,1,3,4,5,2]},{"id":"2864_17238","name":"Chunchaghatta Main Road","lat":12.8918,"lon":77.57215,"tier":"P3","counts":[5,1,0,5,4,2]},{"id":"2883_17268","name":"ITPL Main Road","lat":12.97649,"lon":77.71037,"tier":"P3","counts":[0,10,5,6,1,0]},{"id":"2893_17256","name":"MBT Road","lat":13.01903,"lon":77.65565,"tier":"P3","counts":[4,5,2,1,4,1]},{"id":"2894_17233","name":"Mumbai Bengaluru Highway","lat":13.02368,"lon":77.54928,"tier":"P3","counts":[1,5,1,4,1,1]},{"id":"2886_17237","name":"5th Main Road","lat":12.98798,"lon":77.56785,"tier":"P3","counts":[3,1,6,16,2,0]},{"id":"2910_17238","name":"Yelahanka Road","lat":13.09853,"lon":77.57366,"tier":"P3","counts":[2,13,7,0,4,0]},{"id":"2910_17237","name":"Yelahanka Road","lat":13.09804,"lon":77.56835,"tier":"P3","counts":[7,4,3,0,5,1]},{"id":"2874_17220","name":"Kengeri Main Road","lat":12.93653,"lon":77.4925,"tier":"P3","counts":[0,3,15,5,0,0]},{"id":"2863_17278","name":"Varthur Main Road","lat":12.88369,"lon":77.75228,"tier":"P3","counts":[0,2,7,3,6,0]},{"id":"2869_17240","name":"Sarakki Main Road","lat":12.91063,"lon":77.58197,"tier":"P3","counts":[2,7,1,2,5,0]},{"id":"2900_17218","name":"Mumbai Bengaluru Highway","lat":13.05388,"lon":77.48391,"tier":"P3","counts":[2,5,0,0,1,16]},{"id":"2880_17247","name":"Lower Agram Road Junction","lat":12.96151,"lon":77.61545,"tier":"P3","counts":[13,0,11,0,5,0]},{"id":"2885_17254","name":"Old Madras Road","lat":12.98563,"lon":77.64501,"tier":"P3","counts":[5,1,2,3,4,0]},{"id":"2892_17230","name":"1st Cross Road","lat":13.01481,"lon":77.53892,"tier":"P3","counts":[10,1,0,5,3,0]},{"id":"2885_17255","name":"Suranjan Das Road","lat":12.98625,"lon":77.64812,"tier":"P3","counts":[2,1,4,3,7,0]},{"id":"2883_17278","name":"Whitefield Main Road","lat":12.97613,"lon":77.7512,"tier":"P3","counts":[4,6,1,1,0,0]},{"id":"2879_17229","name":"Attiguppe Circle","lat":12.95993,"lon":77.53279,"tier":"P3","counts":[9,1,1,8,0,0]},{"id":"2869_17259","name":"Haralur Road","lat":12.91382,"lon":77.66658,"tier":"P3","counts":[1,3,9,6,6,0]},{"id":"2876_17221","name":"Kengeri Main Road","lat":12.94472,"lon":77.49517,"tier":"P3","counts":[0,4,10,3,2,0]},{"id":"2902_17223","name":"Hesaraghatta Main Road","lat":13.05987,"lon":77.5066,"tier":"P3","counts":[2,5,3,4,0,5]},{"id":"2898_17227","name":"1st Main Road","lat":13.04549,"lon":77.52271,"tier":"P3","counts":[7,2,2,5,2,0]},{"id":"2870_17253","name":"Outer Ring Road","lat":12.91635,"lon":77.63909,"tier":"P3","counts":[5,4,1,2,4,1]},{"id":"2893_17236","name":"MS Ramaiah Road","lat":13.0214,"lon":77.56302,"tier":"P3","counts":[0,15,7,0,0,5]},{"id":"2893_17261","name":"TC Palya Main Road","lat":13.02115,"lon":77.67747,"tier":"P3","counts":[0,1,6,3,3,0]},{"id":"2857_17228","name":"Konanakunte Main Road","lat":12.86078,"lon":77.5294,"tier":"P3","counts":[5,5,2,3,1,0]},{"id":"2881_17256","name":"Jeevan Bhima Nagar Main Road","lat":12.96777,"lon":77.65398,"tier":"P3","counts":[0,4,8,4,2,2]},{"id":"2866_17243","name":"Rose Garden Road","lat":12.90125,"lon":77.5936,"tier":"P3","counts":[2,0,10,4,0,1]},{"id":"2922_17248","name":"Bengaluru Bellary Road","lat":13.15122,"lon":77.61935,"tier":"P3","counts":[1,2,4,0,3,0]},{"id":"2870_17251","name":"5th Main Road","lat":12.91603,"lon":77.63222,"tier":"P3","counts":[1,1,12,1,0,5]},{"id":"2863_17233","name":"Konanakunte Main Road","lat":12.88379,"lon":77.55031,"tier":"P3","counts":[5,3,2,0,5,0]},{"id":"2899_17237","name":"Outer Ring Road","lat":13.04725,"lon":77.57041,"tier":"P3","counts":[1,5,5,2,0,0]},{"id":"2884_17249","name":"Old Madras Road","lat":12.98194,"lon":77.62386,"tier":"P3","counts":[1,3,12,1,1,0]},{"id":"2894_17254","name":"5th A Cross Road","lat":13.02411,"lon":77.64333,"tier":"P3","counts":[5,4,8,0,3,0]},{"id":"2895_17229","name":"4th Main Road","lat":13.03034,"lon":77.53483,"tier":"P3","counts":[2,13,1,0,2,0]},{"id":"2859_17229","name":"Konanakunte Main Road","lat":12.86634,"lon":77.53452,"tier":"P3","counts":[3,0,6,0,1,3]},{"id":"2871_17238","name":"KR Road Junction, Near JSS","lat":12.92351,"lon":77.57417,"tier":"P3","counts":[8,2,3,1,0,1]},{"id":"2912_17244","name":"Bellary Road","lat":13.10589,"lon":77.60113,"tier":"P3","counts":[7,4,6,0,0,0]},{"id":"2871_17235","name":"Devegowda Petrol Bunk","lat":12.92249,"lon":77.56031,"tier":"P3","counts":[1,1,7,3,1,3]},{"id":"2870_17250","name":"Outer Ring Road","lat":12.91702,"lon":77.62916,"tier":"P3","counts":[0,5,3,5,2,0]},{"id":"2898_17277","name":"MBT Road","lat":13.04525,"lon":77.74959,"tier":"P3","counts":[4,1,1,2,2,2]},{"id":"2869_17263","name":"Sarjapura Main Road","lat":12.91065,"lon":77.6846,"tier":"P3","counts":[4,5,1,2,2,1]},{"id":"2891_17257","name":"5th Main Road","lat":13.01096,"lon":77.65893,"tier":"P3","counts":[8,7,0,3,2,0]},{"id":"2913_17245","name":"Bellary Road","lat":13.11024,"lon":77.60403,"tier":"P3","counts":[9,6,3,0,0,0]},{"id":"2876_17229","name":"Nayandahalli Junction","lat":12.9432,"lon":77.53081,"tier":"P3","counts":[0,5,5,0,2,0]},{"id":"2855_17257","name":"Road Number 1","lat":12.8506,"lon":77.65756,"tier":"P3","counts":[0,47,0,5,0,0]},{"id":"2897_17230","name":"Watch Factory Road","lat":13.03753,"lon":77.53535,"tier":"P3","counts":[2,9,14,0,0,0]},{"id":"2871_17253","name":"7th Cross Road","lat":12.92223,"lon":77.63907,"tier":"P3","counts":[1,4,2,9,3,0]},{"id":"2899_17250","name":"MS Ramaiah North City Road","lat":13.04587,"lon":77.62752,"tier":"P3","counts":[0,6,0,11,0,28]},{"id":"2906_17235","name":"Vidyaranyapura Main Road","lat":13.07951,"lon":77.55916,"tier":"P3","counts":[0,21,1,0,3,0]},{"id":"2933_17267","name":"Cargo Road","lat":13.19922,"lon":77.70382,"tier":"P3","counts":[1,3,6,2,3,0]},{"id":"2899_17234","name":"Rajatha Bhavana Road","lat":13.04773,"lon":77.55496,"tier":"P3","counts":[0,3,4,1,1,1]},{"id":"2866_17257","name":"Haralur Road","lat":12.90032,"lon":77.65975,"tier":"P3","counts":[1,6,3,2,2,0]},{"id":"2893_17280","name":"Whitefield Main Road","lat":13.02031,"lon":77.76226,"tier":"P3","counts":[0,3,3,2,5,1]},{"id":"2870_17242","name":"18th Main, Marenahalli","lat":12.91679,"lon":77.58982,"tier":"P3","counts":[0,4,2,2,3,2]},{"id":"2900_17234","name":"Rajatha Bhavana Road","lat":13.05034,"lon":77.55316,"tier":"P3","counts":[2,0,1,4,2,0]},{"id":"2905_17241","name":"Sahakar Nagar Road","lat":13.0725,"lon":77.5875,"tier":"P3","counts":[2,8,0,11,4,0]},{"id":"2883_17265","name":"Outer Ring Road","lat":12.97706,"lon":77.69645,"tier":"P3","counts":[0,18,4,0,0,0]},{"id":"2863_17244","name":"BDA 80 Feet Road","lat":12.88422,"lon":77.60045,"tier":"P3","counts":[0,1,0,38,0,0]},{"id":"2885_17219","name":"Magadi Main Road","lat":12.98603,"lon":77.48748,"tier":"P3","counts":[10,6,0,1,3,0]},{"id":"2899_17243","name":"Kempapura Main Road","lat":13.04934,"lon":77.59364,"tier":"P3","counts":[0,11,18,7,0,0]},{"id":"2886_17255","name":"Railway Line Road","lat":12.99147,"lon":77.65177,"tier":"P3","counts":[0,24,2,1,0,0]},{"id":"2886_17258","name":"Kaggadaspura Main Road","lat":12.98817,"lon":77.66392,"tier":"P3","counts":[0,0,8,7,4,0]},{"id":"2895_17251","name":"MBT Road","lat":13.02872,"lon":77.63143,"tier":"P3","counts":[1,7,2,1,0,1]},{"id":"2866_17254","name":"27th Cross Road","lat":12.90019,"lon":77.64701,"tier":"P3","counts":[1,0,10,0,5,0]},{"id":"2878_17256","name":"Wind Tunnel Road","lat":12.95324,"lon":77.65277,"tier":"P3","counts":[14,0,3,0,2,0]},{"id":"2861_17253","name":"Manipal County Road","lat":12.87554,"lon":77.63986,"tier":"P3","counts":[0,2,2,5,5,0]},{"id":"2891_17242","name":"Jayamahal Main Road","lat":13.01074,"lon":77.59007,"tier":"P3","counts":[5,1,5,0,3,0]},{"id":"2901_17241","name":"15th Cross Road","lat":13.05796,"lon":77.58758,"tier":"P3","counts":[0,0,17,3,0,0]},{"id":"2879_17264","name":"HAL Airport Road","lat":12.95572,"lon":77.6917,"tier":"P3","counts":[1,0,4,3,4,0]},{"id":"2886_17224","name":"Magadi Main Road","lat":12.98897,"lon":77.5084,"tier":"P3","counts":[2,0,10,2,1,1]},{"id":"2859_17257","name":"Doddanagamangala Road","lat":12.86933,"lon":77.66009,"tier":"P3","counts":[0,1,2,12,2,0]},{"id":"2944_17270","name":"Bangalore Bellary Road","lat":13.24867,"lon":77.71565,"tier":"P3","counts":[2,2,3,0,5,2]},{"id":"2881_17224","name":"60 Feet Road","lat":12.96682,"lon":77.50947,"tier":"P4","counts":[0,0,5,7,1,0]},{"id":"2901_17230","name":"SM Road","lat":13.05478,"lon":77.53586,"tier":"P4","counts":[0,2,0,10,3,1]},{"id":"2892_17267","name":"MBT Road","lat":13.01741,"lon":77.70462,"tier":"P4","counts":[0,6,6,4,3,0]},{"id":"2884_17229","name":"G Narayana Kumar Road","lat":12.98188,"lon":77.5328,"tier":"P4","counts":[1,4,4,1,5,0]},{"id":"2864_17260","name":"Silver County Road","lat":12.88888,"lon":77.67189,"tier":"P4","counts":[0,0,0,8,4,0]},{"id":"2889_17252","name":"Banaswadi Main Road","lat":13.00273,"lon":77.63484,"tier":"P4","counts":[0,1,8,2,3,0]},{"id":"2921_17248","name":"Bengaluru Bellary Road","lat":13.14539,"lon":77.61792,"tier":"P4","counts":[0,4,3,10,0,0]},{"id":"2898_17240","name":"Outer Ring Road","lat":13.0436,"lon":77.5842,"tier":"P4","counts":[0,0,3,3,7,3]},{"id":"2887_17244","name":"Millers Road","lat":12.99544,"lon":77.60171,"tier":"P4","counts":[0,6,4,0,3,3]},{"id":"2903_17239","name":"Shile Havamana Road","lat":13.0646,"lon":77.57837,"tier":"P4","counts":[0,3,11,2,0,0]},{"id":"2860_17237","name":"Amruth Nagar Main Road","lat":12.87234,"lon":77.56654,"tier":"P4","counts":[0,8,5,0,3,0]},{"id":"2866_17255","name":"Somasundarapalya Main Road","lat":12.89909,"lon":77.65076,"tier":"P4","counts":[0,4,5,2,1,2]},{"id":"2875_17264","name":"Yemalur Road","lat":12.93986,"lon":77.69073,"tier":"P4","counts":[0,5,6,0,1,0]},{"id":"2900_17254","name":"Hennur Main Road","lat":13.05284,"lon":77.64614,"tier":"P4","counts":[1,5,3,2,0,2]},{"id":"2897_17248","name":"MBT Road","lat":13.04093,"lon":77.61757,"tier":"P4","counts":[2,3,0,3,4,0]},{"id":"2898_17232","name":"Jalahalli Main Road","lat":13.04524,"lon":77.54816,"tier":"P4","counts":[0,2,6,6,1,0]},{"id":"2863_17254","name":"Hosur Road","lat":12.88391,"lon":77.64339,"tier":"P4","counts":[2,2,2,0,6,0]},{"id":"2872_17239","name":"New Diagonal Road, Jayanagar","lat":12.92721,"lon":77.57802,"tier":"P4","counts":[3,8,0,2,2,0]},{"id":"2903_17238","name":"Kodigehalli Road","lat":13.0637,"lon":77.57188,"tier":"P4","counts":[0,3,3,0,4,1]},{"id":"2869_17253","name":"17th Cross Road","lat":12.91231,"lon":77.63859,"tier":"P4","counts":[3,7,5,0,6,0]},{"id":"2885_17273","name":"ITPL Main Road","lat":12.98585,"lon":77.73083,"tier":"P4","counts":[0,5,2,5,1,0]},{"id":"2864_17259","name":"Silver County Road","lat":12.89102,"lon":77.66784,"tier":"P4","counts":[1,8,1,0,4,0]},{"id":"2867_17249","name":"Kodichikkanahalli Main Road","lat":12.90309,"lon":77.62453,"tier":"P4","counts":[2,1,2,2,5,0]},{"id":"2901_17240","name":"Kodigehalli Main Road","lat":13.05865,"lon":77.58312,"tier":"P4","counts":[3,0,10,0,1,0]},{"id":"2887_17269","name":"Whitefield Road","lat":12.99191,"lon":77.71329,"tier":"P4","counts":[0,1,5,0,2,3]},{"id":"2891_17243","name":"JC Nagar Main Road","lat":13.011,"lon":77.59521,"tier":"P4","counts":[0,3,17,0,3,1]},{"id":"2865_17241","name":"24th Main Road","lat":12.89585,"lon":77.58586,"tier":"P4","counts":[1,3,0,1,4,1]},{"id":"2883_17256","name":"3rd Cross Road","lat":12.97481,"lon":77.65431,"tier":"P4","counts":[0,0,1,2,0,11]},{"id":"2886_17273","name":"Whitefield Road","lat":12.98828,"lon":77.72954,"tier":"P4","counts":[0,1,5,7,2,0]},{"id":"2889_17270","name":"Kodigehalli Main Road","lat":13.00444,"lon":77.71703,"tier":"P4","counts":[3,3,1,0,4,0]},{"id":"2901_17239","name":"Gundappa Road","lat":13.05636,"lon":77.57659,"tier":"P4","counts":[0,1,4,5,0,0]},{"id":"2870_17236","name":"Dr Rajkumar Puniya Bhoomi Road","lat":12.91791,"lon":77.56448,"tier":"P4","counts":[0,0,0,1,2,13]},{"id":"2864_17243","name":"Arekere MICO Layout Main Road","lat":12.89111,"lon":77.59609,"tier":"P4","counts":[2,5,2,1,0,1]},{"id":"2867_17257","name":"Sri Dinne Anjaneya Swamy Temple Road","lat":12.90176,"lon":77.66057,"tier":"P4","counts":[1,0,5,6,4,0]},{"id":"2861_17259","name":"Hosa Road","lat":12.8749,"lon":77.66952,"tier":"P4","counts":[4,2,2,1,2,0]},{"id":"2863_17275","name":"Sarjapura Main Road","lat":12.88745,"lon":77.73842,"tier":"P4","counts":[0,1,4,0,5,0]},{"id":"2912_17245","name":"Bellary Road","lat":13.10739,"lon":77.60317,"tier":"P4","counts":[5,4,3,0,0,0]},{"id":"2870_17222","name":"Global City Tech Park Road","lat":12.91702,"lon":77.50015,"tier":"P4","counts":[43,0,0,0,0,0]},{"id":"2901_17215","name":"Mumbai Bengaluru Highway","lat":13.05759,"lon":77.47067,"tier":"P4","counts":[3,1,3,0,1,3]},{"id":"2853_17258","name":"2nd Cross Road","lat":12.84059,"lon":77.66331,"tier":"P4","counts":[3,4,2,0,5,0]},{"id":"2886_17263","name":"Mahadevapura Flyover","lat":12.99087,"lon":77.68768,"tier":"P4","counts":[0,24,0,0,2,0]},{"id":"2880_17245","name":"Nanjappa Circle","lat":12.96355,"lon":77.60448,"tier":"P4","counts":[4,3,1,2,2,0]},{"id":"2900_17251","name":"Thanisandra Main Road","lat":13.05028,"lon":77.63037,"tier":"P4","counts":[0,0,0,30,0,8]},{"id":"2868_17243","name":"Delmia Circle","lat":12.90697,"lon":77.59505,"tier":"P4","counts":[2,8,3,1,1,0]},{"id":"2892_17238","name":"Sir CV Raman Road","lat":13.01445,"lon":77.57412,"tier":"P4","counts":[4,0,0,0,5,5]},{"id":"2864_17251","name":"13th Main Road","lat":12.89193,"lon":77.63201,"tier":"P4","counts":[0,13,0,11,0,0]},{"id":"2889_17244","name":"VP Deenadayalu Naidu Road","lat":13.0017,"lon":77.59949,"tier":"P4","counts":[1,5,1,2,1,0]},{"id":"2893_17254","name":"80 Feet Road","lat":13.02105,"lon":77.64333,"tier":"P4","counts":[0,8,1,1,1,0]},{"id":"2894_17224","name":"3rd Main Road","lat":13.02517,"lon":77.51109,"tier":"P4","counts":[2,1,3,1,3,0]},{"id":"2890_17243","name":"VP Deenadayalu Naidu Road","lat":13.00528,"lon":77.59453,"tier":"P4","counts":[0,11,0,1,3,0]},{"id":"2893_17267","name":"TC Palya Main Road","lat":13.0209,"lon":77.70191,"tier":"P4","counts":[1,1,2,3,1,0]},{"id":"2889_17262","name":"Old Madras Road","lat":13.00158,"lon":77.68171,"tier":"P4","counts":[1,0,4,2,4,0]},{"id":"2872_17255","name":"Outer Ring Road","lat":12.92445,"lon":77.65009,"tier":"P4","counts":[1,18,3,0,0,0]},{"id":"2910_17236","name":"Yelahanka Road","lat":13.09792,"lon":77.56576,"tier":"P4","counts":[11,1,5,1,0,0]},{"id":"2883_17228","name":"5th Main Chamrajpet  Junction","lat":12.97633,"lon":77.52916,"tier":"P4","counts":[0,0,5,4,6,0]},{"id":"2905_17251","name":"Thanisandra Main Road","lat":13.07359,"lon":77.63364,"tier":"P4","counts":[0,13,1,0,0,1]},{"id":"2855_17241","name":"SH 87","lat":12.85064,"lon":77.58825,"tier":"P4","counts":[2,2,0,2,4,0]},{"id":"2889_17246","name":"Madhavaraya Mudaliar Road","lat":13.00062,"lon":77.61142,"tier":"P4","counts":[2,2,2,0,4,2]},{"id":"2879_17272","name":"HAL Airport Road","lat":12.95588,"lon":77.72584,"tier":"P4","counts":[0,0,1,2,7,0]},{"id":"2867_17268","name":"Sarjapura Main Road","lat":12.90181,"lon":77.70786,"tier":"P4","counts":[0,0,1,3,4,3]},{"id":"2868_17253","name":"22nd Cross Road","lat":12.90918,"lon":77.63947,"tier":"P4","counts":[4,2,0,8,0,0]},